{"stores":[{"name":"PlayCCG.com","address1":"731 North 94th St","address2":"Unit 4","postal_code":"98103","city":"Seattle","state":"WA","country":"US","url":"http://www.playccg.com","latitude":47.696643,"longitude":-122.348647},{"name":"MagicStronghold.com","address1":"#20-5988 Blanshard Drive","address2":"","postal_code":"V3N 1B7","city":"Burnaby","state":"BC","country":"US","url":"http://www.magicstronghold.com","latitude":49.223981,"longitude":-122.941308},{"name":"CheeseBoyCards","address1":"7139 Hickory Post","address2":"","postal_code":"89179","city":"Las Vegas","state":"NV","country":"US","url":"http://www.CheeseBoyCards.com","latitude":35.9862205,"longitude":-115.248144},{"name":"XtremeGamesOnline.com","address1":"2108 E. Grand Ave.","address2":"","postal_code":"60046","city":"Lindenhurst","state":"IL","country":"US","url":"http://www.xtremegamesonline.com","latitude":42.408233,"longitude":-88.030894},{"name":"CCGHouse.com","address1":"3315 NE 112th Ave #82","address2":"","postal_code":"98682","city":"Vancouver","state":"WA","country":"US","url":"http://www.ccghouse.com","latitude":45.646559,"longitude":-122.556582},{"name":"RunMTG","address1":"14702 Gandesa Road","address2":"","postal_code":"90638","city":"La Mirada","state":"CA","country":"US","url":"http://runmtg.crystalcommerce.com","latitude":33.897218,"longitude":-118.020182},{"name":"MuguGames.com","address1":"7529 Beverly Blvd","address2":"STE 1","postal_code":"98203","city":"Everett","state":"WA","country":"US","url":"http://MuguGames.com","latitude":47.929336,"longitude":-122.211599},{"name":"RNGames.com","address1":"688 Whitlock Ave, STE 400","address2":"","postal_code":"30064","city":"Marietta","state":"GA","country":"US","url":"http://RNGames.com","latitude":33.952559,"longitude":-84.572671},{"name":"Lucky's Card Shop","address1":"3929 High Point Road","address2":"","postal_code":"27407","city":"Greensboro","state":"NC","country":"US","url":"http://luckyscardshop.com","latitude":36.0368688,"longitude":-79.8619347},{"name":"TheCollectorsZone.net","address1":"1425 Wildwood Ave","address2":"","postal_code":"49202","city":"Jackson","state":"MI","country":"US","url":"http://TheCollectorsZone.net","latitude":42.252384,"longitude":-84.432061},{"name":"GamersInnAZ.com","address1":"1232 East southern Ave #14","address2":"","postal_code":"85204","city":"Mesa","state":"AZ","country":"US","url":"http://gamersinnaz.crystalcommerce.com","latitude":33.394204,"longitude":-111.804205},{"name":"ComicAsylum.com","address1":"4750 N Jupiter Rd #112","address2":"","postal_code":"75044","city":"Garland","state":"TX","country":"US","url":"http://www.ComicAsylum.com","latitude":32.959616,"longitude":-96.682},{"name":"ChannelFireball.com","address1":"30 North 3rd St.","address2":"","postal_code":"95112","city":"San Jose","state":"CA","country":"US","url":"http://www.channelfireball.com","latitude":37.3377344,"longitude":-121.8887251},{"name":"TheEndZone","address1":"1515 Wabash Ave","address2":"","postal_code":"61938","city":"Mattoon","state":"IL","country":"US","url":"http://www.endzoneonline.com","latitude":39.4804377,"longitude":-88.3726822},{"name":"ManaFix.com","address1":"265 West Shirley St","address2":"","postal_code":"76401","city":"Stephenville","state":"TX","country":"US","url":"http://www.manafix.com","latitude":32.2261176,"longitude":-98.2069159},{"name":"MtgCards.com","address1":"18853 70th AVE","address2":"","postal_code":"V4N-5K3","city":"Surrey","state":"BC","country":"Ca","url":"http://mtgcards.com","latitude":49.1299248,"longitude":-122.6999027},{"name":"CardHaus.com","address1":"3079 Cobblers Crossing Rd","address2":"","postal_code":"47150","city":"New Albany","state":"IN","country":"US","url":"http://www.cardhaus.com","latitude":38.366633,"longitude":-85.776311},{"name":"BlueOxGames","address1":"2816 Jackson Drive","address2":"","postal_code":"27858","city":"Greenville","state":"NC","country":"US","url":"http://www.BlueOxGames.com","latitude":35.600694,"longitude":-77.341088},{"name":"CurioCavern","address1":"8417 Lazy Creek Cout","address2":"","postal_code":"22153","city":"Springfield","state":"VA","country":"US","url":"http://curiocavern.com","latitude":38.730227,"longitude":-77.2275389},{"name":"C\u0026J Collectables","address1":"5409 central ave STE 20","address2":"","postal_code":"94560","city":"Newark","state":"CA","country":"US","url":"http://www.cjcollectibles.com","latitude":37.5389693,"longitude":-122.0177967},{"name":"Chimera Hobby","address1":"PO Box 943","address2":"","postal_code":"54936","city":"Fond du Lac","state":"WI","country":"US","url":"http://www.chimerahobby.com","latitude":43.77,"longitude":-88.45},{"name":"GreatEscapeGames.com","address1":"1250 Howe Ave","address2":"#3A","postal_code":"95825","city":"Sacramento","state":"CA","country":"US","url":"http://GreatEscapeGames.com","latitude":38.5875007,"longitude":-121.4143056},{"name":"Dogs of War Gaming","address1":"1501 Robert J. Conlan BLVD","address2":"","postal_code":"32905","city":"Palm Bay","state":"FL","country":"US","url":"http://dogsofwargaming.com","latitude":28.035281,"longitude":-80.597162},{"name":"LightSpeedHobbies Inc.","address1":"5884 US Highway 6","address2":"","postal_code":"46368","city":"Portage","state":"IN","country":"US","url":"http://www.lightspeedhobbies.com","latitude":41.550537,"longitude":-87.1817798},{"name":"GACSuperstore.com","address1":"1716 Colorado Blvd","address2":"","postal_code":"90041","city":"Los Angeles","state":"CA","country":"US","url":"http://gacsuperstore.crystalcommerce.com","latitude":34.1392729,"longitude":-118.2042688},{"name":"PlanetComics.net","address1":"2704 North Main Street","address2":"","postal_code":"29621","city":"Anderson","state":"SC","country":"US","url":"http://planetcomics.crystalcommerce.com","latitude":34.5300221,"longitude":-82.6613115},{"name":"MorningstarGaming","address1":"11 Margitha Drive","address2":"","postal_code":"31406","city":"Savannah","state":"GA","country":"US","url":"http://www.morningstargaming.com","latitude":31.9858113,"longitude":-81.0865035},{"name":"Kanatacg.com","address1":"30 Cooldrook Crescent","address2":"Box 435","postal_code":"K0A3P0","city":"Munster","state":"ON","country":"CA","url":"http://kanatacg.crystalcommerce.com","latitude":53.4931067,"longitude":-113.6270431},{"name":"TheConnectionGames.com","address1":"6150 Grant Street","address2":"","postal_code":"V5B2K6","city":"Burnaby","state":"BC","country":"CA","url":"http://theconnectiongames.crystalcommerce.com","latitude":49.2706897,"longitude":-122.9748349},{"name":"thekeepgaming.com","address1":"1505 Goshen Ave","address2":"","postal_code":"46808","city":"Fort Wayne","state":"IN","country":"US","url":"http://thekeepgaming.com","latitude":41.100844,"longitude":-85.163677},{"name":"GreenlakeGames.com","address1":"7509 Aurora Ave North","address2":"","postal_code":"98103","city":"Seattle","state":"WA","country":"US","url":"http://GreenlakeGames.com","latitude":47.68361,"longitude":-122.344844},{"name":"Premier Coins \u0026 Collectables","address1":"7050 W Saginaw Hwy","address2":"","postal_code":"48917","city":"Lansing","state":"MI","country":"US","url":"http://premier-magic.com","latitude":42.7410457,"longitude":-84.6592585},{"name":"CapeFearGames.com","address1":"4828 Weybridge Lane","address2":"","postal_code":"28409","city":"Wilmington","state":"NC","country":"US","url":"http://www.CapeFearGames.com","latitude":34.161081,"longitude":-77.885356},{"name":"SuperGamesInc.com","address1":"11060 Alpharetta Highway STE 134","address2":"","postal_code":"30076","city":"Roswell","state":"GA","country":"US","url":"http://www.supergamesinc.com","latitude":34.049261,"longitude":-84.340305},{"name":"MagicArsenal.com","address1":"3400 NE 110th ST B-2","address2":"","postal_code":"98125","city":"Seattle","state":"WA","country":"US","url":"http://www.magicarsenal.com","latitude":47.708539,"longitude":-122.291723},{"name":"AsgardGames.net","address1":"5016 Kirby Drive","address2":"","postal_code":"77098","city":"Houston","state":"TX","country":"US","url":"http://store.asgardgames.net","latitude":29.7274539,"longitude":-95.418617},{"name":"ABUexpress.com","address1":"3938 N Jackie Ln","address2":"","postal_code":"83704","city":"Boise","state":"ID","country":"US","url":"http://www.abuexpress.com","latitude":43.64064,"longitude":-116.295567},{"name":"jeuxfaceaface.com","address1":"2441 Center Street","address2":"","postal_code":"H3K1J9","city":"Montreal","state":"QC","country":"CA","url":"http://facetofacegames.com","latitude":45.487792,"longitude":-73.577955},{"name":"O-netics.com","address1":"14144 76th Place NE","address2":"","postal_code":"98011","city":"Bothell","state":"WA","country":"US","url":"http://o-netics.crystalcommerce.com","latitude":47.729338,"longitude":-122.23916},{"name":"BattleZoneGames","address1":"1556 Washington Ave SE","address2":"","postal_code":"52403","city":"Cedar Rapids","state":"IA","country":"US","url":"http://battlezonegames.crystalcommerce.com","latitude":42.0391819,"longitude":-91.673409},{"name":"PaperHeroesGaming.com","address1":"3941 Ryan Street","address2":"Suite A","postal_code":"70605","city":"Lake Charles","state":"LA","country":"US","url":"http://paperheroesgaming.crystalcommerce.com","latitude":30.186062,"longitude":-93.218044},{"name":"AlteRealityGames.com","address1":"15601 Detroit Road","address2":"","postal_code":"44111","city":"Lakewood","state":"OH","country":"US","url":"http://alterealitygames.com","latitude":41.48489,"longitude":-81.806325},{"name":"OldSchoolGaming.net","address1":"5660 Southwyck Blvd STE 200A","address2":"","postal_code":"43614","city":"Toledo","state":"OH","country":"US","url":"http://www.oldschoolgaming.net","latitude":41.6046383,"longitude":-83.6706976},{"name":"PhoenixGames","address1":"700 Cottontail Court.","address2":"","postal_code":"32708","city":"Winter Springs","state":"FL","country":"US","url":"http://PhoenixGamesinc.com","latitude":28.684569,"longitude":-81.275314},{"name":"Amazing Discoveries","address1":"2410 East Broadway Blvd ","address2":"","postal_code":"85719","city":"Tucson","state":"AZ","country":"US","url":"http://www.amazingmtg.com","latitude":32.2211489,"longitude":-110.936141},{"name":"Anthem-Games.com","address1":"5383 Ehrlich Rd.","address2":"Ste. 203","postal_code":"33625","city":"Tampa","state":"FL","country":"US","url":"http://anthem-games.crystalcommerce.com","latitude":28.084481,"longitude":-82.540668},{"name":"PlayGameCafe.com","address1":"3708 greenwich lane","address2":"","postal_code":"64055","city":"Independance","state":"MO","country":"US","url":"http://www.playgamecafe.com","latitude":39.052399,"longitude":-94.412696},{"name":"Smedlock.com","address1":"PO BOx 775","address2":"","postal_code":"44028","city":"Columbia Station","state":"OH","country":"US","url":"http://www.smedlock.com","latitude":41.2984264,"longitude":-81.931657},{"name":"PlusEVGames.com","address1":"300 n lantana st","address2":"#38","postal_code":"93010","city":"Camerillo","state":"CA","country":"US","url":"http://www.plusevgames.com","latitude":34.2186643,"longitude":-119.0542174},{"name":"TaraAngelsMagic.com","address1":"2415 N Monroe St #2060","address2":"","postal_code":"32303","city":"Tallahassee","state":"FL","country":"US","url":"http://www.taraangelsmagic.com","latitude":30.475857,"longitude":-84.290141},{"name":"TheManaCrypt","address1":"596 SW 207th Ave","address2":"","postal_code":"97006","city":"Aloha","state":"OR","country":"US","url":"http://www.themanacrypt.com","latitude":45.515358,"longitude":-122.89036},{"name":"CoreTCG","address1":"319 S Arroyo Parkway #4","address2":"","postal_code":"91105","city":"Pasadena","state":"CA","country":"US","url":"http://coretcg.crystalcommerce.com","latitude":34.140011,"longitude":-118.1474988},{"name":"TableTopArena","address1":"45 Bodwell Ave","address2":"","postal_code":"01854","city":"Lowell","state":"MA","country":"US","url":"http://tabletoparena.crystalcommerce.com","latitude":42.6571003,"longitude":-71.3272834},{"name":"Paladins Game Castle","address1":"4301 Hahn Ave","address2":"","postal_code":"93309","city":"Bakersfield","state":"CA","country":"US","url":"http://www.PaladinsGameCastle.com","latitude":35.328426,"longitude":-119.050691},{"name":"EmpireCards","address1":"PO Box 2371","address2":"","postal_code":"44241","city":"Streetsboro","state":"OH","country":"US","url":"http://empirecards.crystalcommerce.com","latitude":41.0243999,"longitude":-80.6748993},{"name":"Ideal808.com","address1":"650 iwilei road #120","address2":"","postal_code":"96817","city":"Honolulu","state":"HI","country":"US","url":"http://ideal808.com","latitude":21.316223,"longitude":-157.870912},{"name":"JascoGames.com","address1":"2819 34th St.","address2":"","postal_code":"79410","city":"Lubbock","state":"TX","country":"US","url":"http://jascogames.crystalcommerce.com","latitude":33.5632737,"longitude":-101.87643},{"name":"CrossRoadGames","address1":"27 Moody Road","address2":"","postal_code":"04084","city":"Standish","state":"ME","country":"US","url":"http://CrossRoadGames.com","latitude":43.7570591,"longitude":-70.5468723},{"name":"LostHarbor.com","address1":"61 Southwick Road","address2":"","postal_code":"01085","city":"Westfield","state":"MA","country":"US","url":"http://www.lostharbor.com","latitude":42.1085066,"longitude":-72.7646469},{"name":"MTGCardPlace.com","address1":"Blk 954 #15-530 Hougang Ave 9","address2":"","postal_code":"530954","city":"Singapore","state":"SG","country":"US","url":"http://www.mtgcardplace.com","latitude":1.376763,"longitude":103.878108},{"name":"GameTimeCC.com","address1":"PO Box 24","address2":"","postal_code":"69341","city":"Gering","state":"NE","country":"US","url":"http://www.gametimecc.com","latitude":41.8241667,"longitude":-103.665},{"name":"Lake Geneva Games","address1":"6651 Lakeside Rd","address2":"","postal_code":"53147","city":"Lake Geneva","state":"WI","country":"US","url":"http://lakegenevagames.crystalcommerce.com","latitude":42.5966754,"longitude":-88.3868039},{"name":"Manawerx.com","address1":"3502 west greenway rd","address2":"suite 10 \u0026 11","postal_code":"85053","city":"Phoenix","state":"AZ","country":"US","url":"http://manawerx.crystalcommerce.com","latitude":33.644953,"longitude":-112.093459},{"name":"MatchPlay.com","address1":"502 J Street","address2":"","postal_code":"95901","city":"Marysville","state":"CA","country":"US","url":"http://www.matchplay.com","latitude":39.1397238,"longitude":-121.5981507},{"name":"HotSauceGames.com","address1":"8620 West Davis St","address2":"","postal_code":"60016","city":"Des Plaines","state":"IL","country":"US","url":"http://www.hotsaucegames.com","latitude":42.045668,"longitude":-87.8413379},{"name":"ToyLynx.com","address1":"650 Iwilei Road Suite #120","address2":"","postal_code":"96817","city":"Honolulu","state":"HI","country":"US","url":"http://ToyLynx.com","latitude":21.3169345,"longitude":-157.8709898},{"name":"TopDeckHobbies.com","address1":"6888 Westridge Ct N","address2":"","postal_code":"97303","city":"Keizer","state":"OR","country":"US","url":"http://www.topdeckhobbies.com","latitude":45.018748,"longitude":-123.028909},{"name":"TheMTGPlace.com","address1":"732 S 4th St","address2":"","postal_code":"19147","city":"Philadelphia","state":"PA","country":"US","url":"http://themtgplace.crystalcommerce.com","latitude":39.9396573,"longitude":-75.1497081},{"name":"UntappedGames.com","address1":"9 Sheldon Street","address2":"","postal_code":"02906","city":"Providence","state":"RI","country":"US","url":"http://www.untappedgames.com","latitude":41.8198113,"longitude":-71.4006809},{"name":"MTGEmporium","address1":"2905 Roslyn Court","address2":"","postal_code":"60089","city":"Buffalo Grove","state":"IL","country":"US","url":"http://www.mtgemporium.com","latitude":42.2015397,"longitude":-87.9560113},{"name":"The Only Game in Town","address1":"5 Berwick St","address2":"","postal_code":"08869","city":"Raritan","state":"NJ","country":"US","url":"http://togit.crystalcommerce.com","latitude":40.563375,"longitude":-74.644445},{"name":"Gamer Apocalypse Inc","address1":"8719 Huntington Woods Cir N","address2":"","postal_code":"32244","city":"Jacksonville","state":"FL","country":"US","url":"http://gamerapocalypseinc.crystalcommerce.com","latitude":30.222949,"longitude":-81.794791},{"name":"Playmat World","address1":"6844 Johnson Wagon Crescent","address2":"","postal_code":"L5W1B1","city":"Mississauga","state":"ON","country":"CA","url":"http://playmatworld.com","latitude":43.6266356,"longitude":-79.7221262},{"name":"TheWarstoreCCG.com","address1":"47420 Main Road","address2":"","postal_code":"11971","city":"Southold","state":"NY","country":"US","url":"http://TheWarStoreCCG","latitude":41.0512602,"longitude":-72.4399514},{"name":"Wild Things Games","address1":"1288 State St","address2":"","postal_code":"97301","city":"Salem","state":"OR","country":"US","url":"http://wildthingsgames.com","latitude":44.936666,"longitude":-123.0258142},{"name":"TopDeckMe.com","address1":"1009 North Church Street","address2":"","postal_code":"97217","city":"Portland","state":"OR","country":"US","url":"http://TopDeckMe.com","latitude":45.56357,"longitude":-122.677258},{"name":"FunGameShop.com","address1":"1354 Chemin Chambly","address2":"","postal_code":"J4J3X3","city":"Longueuil","state":"QB","country":"Ca","url":"http://FunGameShop.com","latitude":45.5316409,"longitude":-73.487465},{"name":"JeffAnand","address1":"Blah","address2":"","postal_code":"01001","city":"New York","state":"NY","country":"US","url":"http://jeffanand.crystalcommerce.com","latitude":42.0636956,"longitude":-72.6269437},{"name":"Fandomverse","address1":"201 Antelope Way","address2":"","postal_code":"98145","city":"Las Vegas","state":"NV","country":"US","url":"http://fandomverse.com","latitude":36.172128,"longitude":-115.250528},{"name":"MTGDeals.com","address1":"115 South Walnut Grove Ave STE D","address2":"","postal_code":"91776","city":"San Gabriel","state":"CA","country":"US","url":"http://mtgdeals.crystalcommerce.com","latitude":34.102733,"longitude":-118.084194},{"name":"OnTheStackGames.com","address1":"99 Day Street","address2":"","postal_code":"02062","city":"Norwood","state":"MA","country":"US","url":"http://OnTheStackGames.com","latitude":42.193226,"longitude":-71.203791},{"name":"TCG Warehouse","address1":"8900 SW Burnham #F14","address2":"","postal_code":"97223","city":"Tigard","state":"OR","country":"US","url":"http://tcgwarehouse.com","latitude":45.426439,"longitude":-122.769399},{"name":"YuGiOhGaming.com","address1":"1002 GreenTree Road","address2":"","postal_code":"15220","city":"Pittsburg","state":"PA","country":"US","url":"http://yugiohgaming.crystalcommerce.com","latitude":40.41734,"longitude":-80.045601},{"name":"Onestopcollectables.com","address1":"23215 HWY 99 Apt B211","address2":"","postal_code":"98026","city":"Edmonds","state":"WA","country":"US","url":"http://onestopcollectables.com","latitude":47.7882854,"longitude":-122.3398127},{"name":"RelentlessMTG","address1":"1311 North 61st Ave","address2":"","postal_code":"32506","city":"Pensacola","state":"FL","country":"US","url":"http://RelentlessMTG.com","latitude":30.42762,"longitude":-87.29626},{"name":"TCGFan","address1":"1882 Woodside Drive","address2":"","postal_code":"43040","city":"Marysville","state":"OH","country":"US","url":"http://tcgfan.crystalcommerce.com","latitude":40.263246,"longitude":-83.3845259},{"name":"MagicCrabs.com","address1":"105 West Arrow Hwy","address2":"STE 2","postal_code":"91773","city":"San Dimas","state":"CA","country":"US","url":"http://MagicCrabs.com","latitude":34.103457,"longitude":-117.807613},{"name":"JRMagicCards.com","address1":"3141 South Wylie Circle","address2":"","postal_code":"85212","city":"Mesa","state":"AZ","country":"US","url":"http://JRMagicCards.com","latitude":33.358132,"longitude":-111.62283},{"name":"phyrexiangames.com","address1":"52 kendall hill rd","address2":"","postal_code":"01453","city":"leominster","state":"MA","country":"US","url":"http://phyrexiangames.crystalcommerce.com","latitude":42.5440961,"longitude":-71.7876207},{"name":"FiveMox.com","address1":"18 Newfield Lane","address2":"","postal_code":"02675","city":"Yarmouth Port","state":"MA","country":"US","url":"http://FiveMox.com","latitude":41.692759,"longitude":-70.2293399},{"name":"TheGameAcademy","address1":"5721 East Fowler Ave","address2":"","postal_code":"33617","city":"Tampa","state":"FL","country":"US","url":"http://TheGameAcademyOnline.com","latitude":28.0542997,"longitude":-82.3920761},{"name":"Millennium Games","address1":"22 Queensland Drive","address2":"","postal_code":"14559","city":"Spencerport","state":"NY","country":"US","url":"http://millenniumgames.crystalcommerce.com","latitude":43.1742599,"longitude":-77.747057},{"name":"TheToyFactory.com","address1":"2407 Vintage Hill Drive","address2":"","postal_code":"27712","city":"Durham","state":"NC","country":"US","url":"http://thetoyfactory.crystalcommerce.com","latitude":36.118987,"longitude":-78.872055},{"name":"Rooks Comics and Games","address1":"2740 west main st.","address2":"","postal_code":"59718","city":"Bozeman","state":"Mt","country":"US","url":"http://RooksComicsandGames.com","latitude":37.2281641,"longitude":-77.3901793},{"name":"Iowa City Games","address1":"206 Stevens Dr","address2":"","postal_code":"52405","city":"Iowa City","state":"IA","country":"US","url":"http://iowacitygames.com","latitude":41.6429342,"longitude":-91.5326942},{"name":"Cloak and Dagger Comics","address1":"616 Dixie Lane","address2":"","postal_code":"32119","city":"Daytona","state":"FL","country":"US","url":"http://cloakanddaggercomicsonline.com","latitude":29.166718,"longitude":-81.007692},{"name":"The Metamart","address1":"470 Main St Apt 3G","address2":"","postal_code":"01420","city":"Fitchburg","state":"MA","country":"US","url":"http://themetamart.com","latitude":42.582617,"longitude":-71.799198},{"name":"Circle City Gaming","address1":"7 Launch Way","address2":"","postal_code":"46038","city":"fishers","state":"in","country":"us","url":"http://circlecitygaming.com","latitude":37.2281641,"longitude":-77.3901793},{"name":"Sci Fi City","address1":"8128 Mid Park Rd Ste I","address2":"","postal_code":"37921","city":"Knoxville","state":"TN","country":"US","url":"http://sci-fi-city.com","latitude":35.9735642,"longitude":-84.0273168},{"name":"Elsewhere Comics","address1":"2361 Vermont","address2":"","postal_code":"60406","city":"Blue Island","state":"IL","country":"US","url":"http://elsewherecomics.crystalcommerce.com","latitude":41.6554436,"longitude":-87.6796189},{"name":"PortCityGames","address1":"15 Pleasant Street Apt C1","address2":"","postal_code":"04101","city":"Portland","state":"ME","country":"US","url":"http://PortCityGames.com","latitude":43.6545656,"longitude":-70.2577274},{"name":"Oasis Games","address1":"145 E 200 S","address2":"","postal_code":"84111","city":"Salt Lake City","state":"UT","country":"US","url":"http://oasisgamesslc.com","latitude":40.7659883,"longitude":-111.8853413},{"name":"BorderLandsGames.com","address1":"1483 Westbrook drive NW","address2":"","postal_code":"97304","city":"Salem","state":"OR","country":"US","url":"http://borderlandsgames.crystalcommerce.com","latitude":44.9560375,"longitude":-123.0618615},{"name":"Nerdvana","address1":"1923 Emporium Drive Ste F","address2":"","postal_code":"38305","city":"Jackson","state":"TN","country":"US","url":"http://nerdvana.crystalcommerce.com","latitude":35.6665934,"longitude":-88.8494539},{"name":"Leeters","address1":"3000 Mall View Rd","address2":"Ste 1065","postal_code":"93306","city":"Bakersfield","state":"CA","country":"US","url":"http://leeters.info","latitude":35.393991,"longitude":-118.959638},{"name":"Category One Games","address1":"1183 N 1800 W","address2":"","postal_code":"84043","city":"Lehi","state":"UT","country":"US","url":"http://categoryonegames","latitude":40.402135,"longitude":-111.878543},{"name":"Miniature Exchange","address1":"2723 Creekwood Ct","address2":"","postal_code":"75006","city":"Carrollton","state":"TX","country":"US","url":"http://miniatureexchange","latitude":32.968057,"longitude":-96.861373},{"name":"MTG Titan","address1":"254 Hayden Rowe St","address2":"","postal_code":"01748","city":"Hopkinton","state":"MA","country":"US","url":"http://MTGTitan","latitude":42.197119,"longitude":-71.505742},{"name":"Critical Hit Games","address1":"702 S Gilbert St","address2":"","postal_code":"52240","city":"Iowa City","state":"IA","country":"US","url":"http://criticalhitgames.net","latitude":41.65249,"longitude":-91.530449},{"name":"TopDeckGamers.com","address1":"2379 NE Loop 410","address2":"STE 110","postal_code":"78217","city":"San Antonio","state":"TX","country":"US","url":"http://topdeckgamers.crystalcommerce.com","latitude":29.5172049,"longitude":-98.4210044},{"name":"RonsComicWorld","address1":"1690 Rout 38","address2":"","postal_code":"08060","city":"Mt Holly","state":"NJ","country":"US","url":"http://RonsComicWorld.com","latitude":39.9824404,"longitude":-74.7818868},{"name":"BigKidzGames.com","address1":"7471 Sunview Avenue SE","address2":"","postal_code":"49548","city":"Gran Rapids","state":"MI","country":"US","url":"http://BigKidzGames.com","latitude":43.084827,"longitude":-85.671903},{"name":"Troll Trader Cards","address1":"The Former Pine Showroom","address2":"Kestle Mill","postal_code":"TR8 4TU","city":"Newquay","state":"Co","country":"UK","url":"http://trolltradercards.com","latitude":0.0,"longitude":0.0},{"name":"Spanky's Card Shop","address1":"1001 e117th terrace","address2":"","postal_code":"64131","city":"kansas city ","state":"MO","country":"US","url":"http://spankyscardshop.com","latitude":38.9450668,"longitude":-94.5779191},{"name":"Northwest Gamer's Choice","address1":"3816 Bridgeport Way W","address2":"","postal_code":"98466","city":"University Place","state":"WA","country":"US","url":"http://http//www.nwgamerschoice.com/","latitude":0.0,"longitude":0.0},{"name":"Static Age Games \u0026 Comics","address1":"655 Hwy 72 W","address2":"","postal_code":"35611","city":"Athens","state":"AL","country":"US","url":"http://staticagegames.crystalcommerce.com","latitude":34.7900591,"longitude":-86.9763608},{"name":"manafiends","address1":"4605 pacific riviera way","address2":"","postal_code":"92154","city":"san diego","state":"ca","country":"US","url":null,"latitude":32.570296,"longitude":-117.034649},{"name":"BrapsMagic.com","address1":"193 Shelburne Street","address2":"","postal_code":"05401","city":"Burlington","state":"VT","country":"US","url":"http://BrapsMagic.com","latitude":44.4599407,"longitude":-73.2081629},{"name":"Time Vault Games","address1":"1847 se 148th ave ","address2":"","postal_code":"97233","city":"portland","state":"OR","country":"US","url":"http://timevaultgames.crystalcommerce.com","latitude":45.509659,"longitude":-122.511883},{"name":"Game Theory Store","address1":"1117 Hymettus Court","address2":"","postal_code":"27607","city":"Raleigh","state":"NC","country":"US","url":"http://gametheorystore.com","latitude":35.802416,"longitude":-78.67746},{"name":"Legit MTG LLC","address1":"1792 Greentree Meadows Dr","address2":"","postal_code":"45036","city":"Lebanon","state":"OH","country":"US","url":"http://legitmtg.com","latitude":39.4677494,"longitude":-84.2848318},{"name":"Mad Al","address1":"430 W 53rd Ave., Suite C","address2":"","postal_code":"99518","city":"Anchorage","state":"AK","country":"US","url":"http://madal.crystalcommerce.com","latitude":61.172435,"longitude":-149.890775},{"name":"Enchanted Realms games and gifts LLC","address1":"6679 bismark rd.","address2":"Suite INJ","postal_code":"80922","city":"Colorado Springs","state":"CO","country":"US","url":"http://enchanted-realms.com","latitude":38.868794,"longitude":-104.703078},{"name":"Battleground Games and Hobbies","address1":"70 brook circle","address2":"","postal_code":"02339","city":"hanover ","state":"MD","country":"US","url":"http://battlegroundgames.com","latitude":39.1480796,"longitude":-76.7447958},{"name":"Phoenixfiregames","address1":"62 e fairview ave","address2":"","postal_code":"83642","city":"meridian","state":"ID","country":"us","url":"http://phoenixfiregames.crystalcommerce.com","latitude":43.6192588,"longitude":-116.3920424},{"name":"Untap Upkeep Draw","address1":"3028 Hartert","address2":"","postal_code":"83404","city":"Idaho Falls","state":"ID","country":"US","url":"http://untap-upkeep-draw","latitude":43.470714,"longitude":-112.023007},{"name":"Nerd Rage Gaming","address1":"49 Haversham Ln","address2":"","postal_code":"60010","city":"North Barrington","state":"IL","country":"US","url":"http://nerdragegaming.com","latitude":42.212402,"longitude":-88.12346},{"name":"Legends Games \u0026 Comics","address1":"1220 E Joppa Rd #106","address2":"","postal_code":"21286","city":"Towson","state":"MD","country":"US","url":"http://legendsgames.com","latitude":39.3973706,"longitude":-76.5764479},{"name":"Kirwans game store","address1":"369 main st","address2":"","postal_code":"12414","city":"catskill","state":"ny","country":"us","url":"http://kirwansgamestore.com","latitude":42.2186069,"longitude":-73.8652988},{"name":"The Magic Arena","address1":"5286 Oak Court Cove N","address2":"","postal_code":"38141","city":"Memphis","state":"TN","country":"US","url":"http://themagicarena.com","latitude":35.004123,"longitude":-89.846046},{"name":"Gamingzone (PR)","address1":"po box 5016 ","address2":"","postal_code":"00984","city":"Carolina","state":"pr","country":"Pu","url":"http://gamingzoneonline.com","latitude":18.3807613,"longitude":-65.9566912},{"name":"Geeks Etc.","address1":"461 W Lincoln St","address2":"","postal_code":"37388","city":"Tullahoma","state":"TN","country":"US","url":"http://geeksmtg.com","latitude":35.3586001,"longitude":-86.2161929},{"name":"Moxmania","address1":"7149 Timberwood dr.","address2":"","postal_code":"53719","city":"Madison","state":"wi","country":"us","url":"http://moxmania.com","latitude":43.014781,"longitude":-89.509242},{"name":"Timezonegaming","address1":"430 new brunswick ave","address2":"","postal_code":"08863","city":"fords","state":"ne","country":"us","url":"http://shoptzg.crystalcommerce.com","latitude":40.527245,"longitude":-74.3091687},{"name":"Game Citadel","address1":"720 broadway","address2":"suite a","postal_code":"04401","city":"Bangor","state":"me","country":"us","url":"http://gamecitadel.com","latitude":44.8249497,"longitude":-68.7808788},{"name":"Two Headed Games","address1":"1602 scott st.","address2":"","postal_code":"41011","city":"covington","state":"KY","country":"US","url":"http://twoheadedgames.crystalcommerce.com","latitude":39.071943,"longitude":-84.505163},{"name":"Gamescape","address1":"2415 n monroe st. ","address2":"303","postal_code":"32303","city":"Tallahassee","state":"FL","country":"US","url":"http://gamescape.com","latitude":30.4722686,"longitude":-84.2915398},{"name":"Jewel Scene","address1":"26431 ynez rd.","address2":"suite b","postal_code":"92591","city":"Temecula","state":"CA","country":"US","url":"http://jewelscene.com","latitude":33.490604,"longitude":-117.134967},{"name":"Main Phase","address1":"1010 dufferin ave","address2":"","postal_code":"n8a2w1","city":"wallaceburg","state":"on","country":"Ca","url":"http://main-phase.com","latitude":42.5932324,"longitude":-82.3926362},{"name":"Pinkbunnygames llc","address1":"1204 Minnesota ave","address2":"","postal_code":"53172","city":"South Milwaukee","state":"wi","country":"us","url":null,"latitude":42.9126278,"longitude":-87.8649451},{"name":"The Magic Card Trader","address1":"34 Bookingham Rise","address2":"","postal_code":"CV59HE","city":"Coventry","state":"UK","country":"GB","url":"http://themagiccardtrader.crystalcommerce.com","latitude":52.4134631,"longitude":-1.5623696},{"name":"Packards Games (Hub)","address1":"1130 oak ridge turnpike,  ","address2":"","postal_code":"37830","city":"Oak Ridge","state":"tn","country":"us","url":"http://packardsgames.com","latitude":36.019852,"longitude":-84.248291},{"name":"ctrlaltelite","address1":"5204 Detroit Rd","address2":"","postal_code":"44035","city":"Sheffield Village","state":"OH","country":"Us","url":"http://ctrlaltelitegaming.com","latitude":41.4248714,"longitude":-82.0812777},{"name":"Threekingsloot","address1":"2005 lambert-closse","address2":"unit 6","postal_code":"h3h1z7","city":"Montreal","state":"ON","country":"Ca","url":"http://threekingsloot.com","latitude":45.4913479,"longitude":-73.585166},{"name":"SW CCG Market","address1":"7846 Windward Trace Circle","address2":"","postal_code":"44646","city":"Massillon","state":"OH","country":"US","url":"http://swccgmarket.com","latitude":40.86136,"longitude":-81.494806},{"name":"Coffeehaus Games","address1":"7116 220th St SW Ste B","address2":"","postal_code":"98043","city":"Mountlake Terrace","state":"WA","country":"US","url":"http://www.coffeehausgames.com","latitude":47.8213243,"longitude":-122.2613955},{"name":"ImagineGamesOnline.com","address1":"8122 Highway 107 North","address2":"STE B \u0026 C","postal_code":"72120","city":"Sherwood","state":"AR","country":"US","url":null,"latitude":34.829208,"longitude":-92.230997},{"name":"Wartornfront","address1":"506 n union rd.","address2":"","postal_code":"95337","city":"Manteca","state":"ca","country":"us","url":"http://wartornfront.com","latitude":37.8054521,"longitude":-121.2350751},{"name":"Ogre's Games","address1":"4501 s kingshighway","address2":"","postal_code":"61039","city":"st. louis ","state":"mo","country":"Us","url":"http://ogresgamesonline.com","latitude":38.63897,"longitude":-90.265218},{"name":"Game Goblins","address1":"117 detonti","address2":"","postal_code":"72113","city":"maumelle","state":"ar","country":"us","url":"http://gamegoblins.com","latitude":34.87577,"longitude":-92.417168},{"name":"Game HQ","address1":"PO Box 891241","address2":"","postal_code":"73189","city":"Oklahoma City","state":"OK","country":"US","url":"http://gameheadquarters.com","latitude":35.375689,"longitude":-97.5479076},{"name":"Carte Blanche","address1":"7464 birnam","address2":"","postal_code":"h3n2t2","city":"montreal","state":"qu","country":"Ca","url":"http://carteblanchehobbies.com","latitude":45.5256712,"longitude":-73.6288067},{"name":"Pwnage Games","address1":"2783 elk cam blvd","address2":"suite 206","postal_code":"32738","city":"deltona","state":"FL","country":"us","url":"http://pwnagegames.net","latitude":28.9075315,"longitude":-81.1747498},{"name":"Get Some Game","address1":"1224 commercial ave","address2":"","postal_code":"28205","city":"charlotte ","state":"nc","country":"us","url":"http://getsomegame.com","latitude":35.245819,"longitude":-80.782664},{"name":"Dick and Jane's sports cards","address1":"1833 dean rd","address2":"","postal_code":"32216","city":"jacksonville ","state":"fl","country":"us","url":"http://dickandjanesonline.crystalcommerce.com","latitude":30.289055,"longitude":-81.591442},{"name":"Masterworkgames","address1":"2547-a Nashville hwy","address2":"","postal_code":"38401","city":"Columbia ","state":"Tn","country":"US","url":"http://masterworkgames.crystalcommerce.com","latitude":35.747594,"longitude":-86.889118},{"name":"Card Titan","address1":"204 Tarry Drive","address2":"","postal_code":"08057","city":"Moorestown","state":"NJ","country":"US","url":"http://cardtitan.com","latitude":39.9293687,"longitude":-74.9980704},{"name":"Dizzy Dugout","address1":"121 E Main St","address2":"","postal_code":"62234","city":"Collinsville","state":"IL","country":"US","url":"http://dizzydugout.com","latitude":38.6703309,"longitude":-89.9852017},{"name":"GrandLan Gaming Center","address1":"po box 230311","address2":"","postal_code":"49523","city":"grand rapids","state":"mi","country":"us","url":"http://grandlan.info","latitude":42.96,"longitude":-85.67},{"name":"Pink Gorilla Games","address1":"6053 california ave sw","address2":"","postal_code":"98136","city":"seattle","state":"Wa","country":"Us","url":"http://pinkgorillagames.crystalcommerce.com","latitude":47.546975,"longitude":-122.387655},{"name":"Duelist Groundz","address1":"3107 delmore rd","address2":"","postal_code":"33618","city":"Tampa","state":"fl","country":"us","url":"http://duelistgroundz.crystalcommerce.com","latitude":28.0771075,"longitude":-82.5023464},{"name":"Gamerz","address1":"8735 US 31 South ","address2":"","postal_code":"46227","city":"Indianapolis","state":"IN","country":"US","url":"http://indygamerz.com","latitude":39.6332233,"longitude":-86.1583575},{"name":"Desert Sky Games","address1":"1811 west winchester","address2":"","postal_code":"85286","city":"Chandler","state":"az","country":"us","url":"http://desertskygamres.com","latitude":33.2884699,"longitude":-111.872521},{"name":"Lamere De Labysse","address1":"7355 san michele blvd","address2":"","postal_code":"h2a2z9","city":"Montreal","state":"Mo","country":"ca","url":"http://labyss.crystalcommerce.com","latitude":45.5598067,"longitude":-73.6001246},{"name":"TGATampa","address1":"5721 East Fowler Ave","address2":"","postal_code":"33617","city":"Tampa","state":"FL","country":"us","url":"http://tgatampa.com","latitude":28.0543042,"longitude":-82.3922861},{"name":"Legends Comics and Games","address1":"10123 North Wolf Road STE 2108","address2":"","postal_code":"95014","city":"Cupertino","state":"CA","country":"US","url":"http://legendscomicsandgames.com","latitude":37.3268591,"longitude":-122.0150134},{"name":"Superior Game Works","address1":"1015 N 3rd St Ste #3","address2":"","postal_code":"49855","city":"Marquette","state":"MI","country":"US","url":"http://superiorgameworks.crystalcommerce.com","latitude":46.5526417,"longitude":-87.3947721},{"name":"superspecialawesomecards","address1":"5773 silver sage ct.","address2":"","postal_code":"91709","city":"Chino Hills","state":"Ca","country":"us","url":"http://superspecialawesomecards.com","latitude":33.95144,"longitude":-117.678954},{"name":"Tier 1 Cards \u0026 Games ","address1":"1921 west diamond blvd","address2":"suite b3","postal_code":"99515","city":"Anchorage","state":"ak","country":"us","url":"http://tier1cardsandgames.com","latitude":61.1389516,"longitude":-149.9159569},{"name":"A+ Comics and Collectibles","address1":"123 Southland Drive","address2":"","postal_code":"40503","city":"Lexington","state":"ky","country":"US","url":"http://apluscomics.com","latitude":38.0118419,"longitude":-84.5182304},{"name":"The Realm Games \u0026 Comics","address1":"1021 e. imperial hwy","address2":"suite g2","postal_code":"92821","city":"Brea","state":"ca","country":"us","url":"http://therealmgamesandcomics.crystalcommerce.com","latitude":33.9131337,"longitude":-117.8908777},{"name":"Magicsingles.com","address1":"160 Main Street","address2":"","postal_code":"01757","city":"Milford","state":"MA","country":"US","url":"http://magicsingles.com","latitude":42.1410999,"longitude":-71.5198493},{"name":"Game Changer","address1":"991 e. eau gallie blvd","address2":"suite c","postal_code":"32937","city":"indian harbour beach","state":"Fl","country":"US","url":"http://gamechangerstores.com","latitude":28.138628,"longitude":-80.5826184},{"name":"Accidentally Cool Games","address1":"407 Algoma ST NW","address2":"","postal_code":"56601","city":"Bemidji","state":"MN","country":"US","url":"http://accidentallycoolgames.com","latitude":47.5013396,"longitude":-94.884086},{"name":"Teddy N Me","address1":"499 Main St S","address2":"","postal_code":"l6y1n7","city":"Brampton","state":"ON","country":"CA","url":"http://teddynme.com","latitude":43.6677576,"longitude":-79.7360248},{"name":"Gamers Grove","address1":"1518 university ave","address2":"","postal_code":"77320","city":"huntsville ","state":"tx","country":"us","url":"http://gamers-grove.com","latitude":30.7188202,"longitude":-95.5505077},{"name":"DeckFactory","address1":"6742 E State Blvd","address2":"","postal_code":"46815","city":"Fort Wayne","state":"IN","country":"US","url":"http://deckfactory.com","latitude":41.1036421,"longitude":-85.0552119},{"name":"Gamers United Shop","address1":"17416 7th st ","address2":"","postal_code":"34756","city":"Mount Verde","state":"fl","country":"us","url":"http://gamersunitedshop.com","latitude":28.5925736,"longitude":-81.6802054},{"name":"Top Deck Cards and Games","address1":"5797 library rd","address2":"building 2 suite 1","postal_code":"15102","city":"Bethel park","state":"Pa","country":"us","url":"http://topdeckcardsandgames.net","latitude":40.3112272,"longitude":-80.0326243},{"name":"No Limit Gaming","address1":"3613 Wilmington Pike ","address2":"","postal_code":"45429","city":"Kettering ","state":"OH","country":"US","url":"http://nlgtcg.com","latitude":39.693999,"longitude":-84.13831},{"name":"Game Haven","address1":"3141 Transportation RD","address2":"","postal_code":"45404","city":"Dayton","state":"OH","country":"US","url":"http://thegamehaven.com","latitude":39.800537,"longitude":-84.131974},{"name":"Mirage Gaming","address1":"4884 S Kirk way","address2":"","postal_code":"80015","city":"AURORA","state":"co","country":"US","url":"http://mirage-gaming.crystalcommerce.com","latitude":39.62771,"longitude":-104.746065},{"name":"MTGCardMarket.com","address1":"747 N Wabash Ave","address2":"Unit 2305","postal_code":"60611","city":"Chicago","state":"IL","country":"US","url":"http://mtgcardmarket.com","latitude":40.418875,"longitude":-86.888215},{"name":"Frogtown Hobbies","address1":"117 central ave","address2":"","postal_code":"43460","city":"rossford","state":"Oh","country":"us","url":"http://frogdownhobbies.com","latitude":41.603877,"longitude":-83.571063},{"name":"Grinders Games","address1":"14002 n 49th ave","address2":"1087","postal_code":"85306","city":"phoenix","state":"az","country":"us","url":"http://grindersgames.crystalcommerce.com","latitude":33.6132054,"longitude":-112.1669045},{"name":"Just Flip TCG","address1":"PO box i","address2":"","postal_code":"95121","city":"San Jose","state":"CA","country":"US","url":"http://http//www.justfliptcg.com/","latitude":38.019819,"longitude":-121.753034},{"name":"Revelations LLC","address1":"7914 memorial parkway sw","address2":"suite a3","postal_code":"35802","city":"huntsville ","state":"Al","country":"us","url":"http://thefoundrygamestore.com","latitude":34.6624711,"longitude":-86.5712046},{"name":"Hammer Hall Gaming","address1":"3325-12 Plymouth St","address2":"","postal_code":"32205","city":"Jacksonville","state":"FL","country":"US","url":"http://hammerhallgaming.crystalcommerce.com","latitude":30.309886,"longitude":-81.7111089},{"name":"DNA Comics and Games","address1":"20032 hwy 59 n","address2":"","postal_code":"77338","city":"Humble","state":"Tx","country":"us","url":"http://dnacomicsandgames.crystalcommerce.com","latitude":30.0078681,"longitude":-95.2665465},{"name":"Cardgeek","address1":"C D Tuinenburgstraat 193","address2":"","postal_code":"3078GD","city":"Rotterdam","state":"So","country":"Th","url":"http://www.cardgeek.com","latitude":51.8913813,"longitude":4.54988},{"name":"Perfect Storm Mtg","address1":"57088 South Main St","address2":"","postal_code":"49071","city":"Mattawan","state":"MI","country":"US","url":"http://perfectstormmtg.com","latitude":42.2112031,"longitude":-85.7852213},{"name":"Geared Up Gaming","address1":"8723 Sandy Planes Dr","address2":"","postal_code":"33578","city":"Riverview","state":"FL","country":"US","url":"http://shopatgearedup.com","latitude":27.866422,"longitude":-82.359764},{"name":"Just Games","address1":"553 American Dream Car Rd","address2":"","postal_code":"40701","city":"Corbin","state":"KY","country":"US","url":"http://justgamesevents.com","latitude":36.9486986,"longitude":-84.0968761},{"name":"Game Keeper","address1":"7815 Chateau Briand","address2":"","postal_code":"h2r-2m5","city":"Montreal","state":"Qu","country":"Ca","url":"http://gamekeeperonline.com","latitude":45.5446286,"longitude":-73.6235076},{"name":"breakpoint books","address1":"3767 Lake Center Dr","address2":"","postal_code":"32757","city":"Mt. Dora","state":"Fl","country":"US","url":"http://breakpointtcg.com","latitude":28.8024918,"longitude":-81.644519},{"name":"Epic Gaming","address1":"17185 SE Mcloughlin BLVD","address2":"","postal_code":"97267","city":"Milwaukie","state":"OR","country":"US","url":"http://epicgamingpdx.com","latitude":45.3991052,"longitude":-122.6195509},{"name":"LA Mood Comics","address1":"350 Richmond st","address2":"","postal_code":"N6a3c3","city":"Ontario","state":"On","country":"Ca","url":"http://Lamoodcomics.com","latitude":42.9819985,"longitude":-81.2487909},{"name":"Pirate Chest","address1":"1620 n. banana river dr.","address2":"","postal_code":"32952","city":"merritt islands","state":"fl","country":"us","url":"http://piratechest.com","latitude":28.2949008,"longitude":-80.6659842},{"name":"The Comic Hunter","address1":"465 Main Street","address2":"","postal_code":"E1C-1C2","city":"Moncton","state":"NB","country":"Ca","url":"http://comichunter.crystalcommerce.com","latitude":46.0905503,"longitude":-64.7714287},{"name":"MKohl Games","address1":"3554 cr 427","address2":"","postal_code":"46706","city":"auburn","state":"in","country":"us","url":"http://mkohlgames.crystalcommerce.com","latitude":41.4020374,"longitude":-85.0422786},{"name":"Across the Board Games","address1":"449 n andy griffith park way","address2":"suite 700","postal_code":"27030","city":"mt. airy","state":"nc","country":"us","url":"http://acrosstheboardgames.com","latitude":36.4615622,"longitude":-80.6080212},{"name":"The War Store (2)","address1":"47420 main rd. southold ","address2":"","postal_code":"11971","city":"new york","state":"ny","country":"us","url":"http://warstore2.com","latitude":41.051275,"longitude":-72.4399609},{"name":"Eudemonia.net","address1":"2154 University Avenue","address2":"","postal_code":"94704","city":"Berkley","state":"CA","country":"US","url":"http://store.eudogames.com","latitude":37.8721659,"longitude":-122.2671969},{"name":"Get Your Fun On","address1":"3030 W New Haven Ave.","address2":"","postal_code":"32904","city":"West Melbourne","state":"FL","country":"US","url":"http://getyourfunonshop.crystalcommerce.com","latitude":27.9874331,"longitude":-80.6622152},{"name":"Classic Game Shops LLC dba the whiz store","address1":"122 Turnpike Rd","address2":"","postal_code":"01581","city":"Westborough","state":"MA","country":"US","url":"http://whiznet.crystalcommerce.com","latitude":42.284386,"longitude":-71.605221},{"name":"Gamers Gambit","address1":"2600 s road ","address2":"","postal_code":"12601","city":"poughkeepfie","state":"ny","country":"us","url":"http://gamersgambit.crystalcommerce.com","latitude":41.685937,"longitude":-73.889935},{"name":"Cataclysm Collectables","address1":"5069 edgemere ct","address2":"","postal_code":"61073","city":"Roscoe","state":"Il","country":"us","url":"http://cataclysmcollectables.com","latitude":42.4276539,"longitude":-89.0181398},{"name":"The Gamers Guild LLC","address1":"221 s frankphillips blvd","address2":"","postal_code":"74005","city":"bartlettsville","state":"ok","country":"us","url":"http://okgamersguild.com","latitude":36.7515116,"longitude":-95.9791257},{"name":"Affordable Hobby Games","address1":"24516 hwy 105 e. ","address2":"","postal_code":"77329","city":"cleveland ","state":"tx","country":"us","url":"http://affordable-hobby-games.com","latitude":30.3178777,"longitude":-95.1804922},{"name":"Tier 1 Games","address1":"28860 old town front street","address2":"suite b-2","postal_code":"92590","city":"Temecula","state":"CA","country":"us","url":"http://tier1games.com","latitude":33.4872609,"longitude":-117.144127},{"name":"Happy Viking Games","address1":"2952 olga pl","address2":"","postal_code":"32205","city":"jacksonville","state":"fl","country":"us","url":"http://happyvikinggames.crystalcommerce.com","latitude":30.307975,"longitude":-81.7026107},{"name":"Magic and Monsters","address1":"24001 via second ward sadricante","address2":"unit 906","postal_code":"92691","city":"mission viejo","state":"ca","country":"Us","url":"http://magicandmonsters.crystalcommerce.com","latitude":33.6062809,"longitude":-117.6728185},{"name":"All About Games","address1":"7079 overland rd","address2":"","postal_code":"83709","city":"Boise","state":"Id","country":"us","url":"http://aagboise.com","latitude":43.5901281,"longitude":-116.2697719},{"name":"The Game Hub","address1":"PO BOX 1495","address2":"","postal_code":"95457","city":"Lower Lake","state":"CA","country":"US","url":"http://thegamehub.net","latitude":38.9104546,"longitude":-122.6102614},{"name":"Troll Trader","address1":"The Former Pine Showroom","address2":"Kestle Mill","postal_code":"TR8 4TU","city":"Newquay","state":"Co","country":"Un","url":"http://thetrolltrader.com","latitude":0.0,"longitude":0.0},{"name":"Tier Zer0 Gaming ","address1":"223-a west walnut st","address2":"","postal_code":"27530","city":"goldsboro","state":"NC","country":"us","url":"http://tierzer0gaming.crystalcommerce.com","latitude":35.38412,"longitude":-77.999645},{"name":"Fantasy Sportscards","address1":"126n 7th st ","address2":"","postal_code":"45750","city":"Marietta","state":"Oh","country":"Us","url":"http://fantasysportscards.net","latitude":39.4172192,"longitude":-81.4454809},{"name":"Sunshine Adventure Gaming","address1":"PO BOX 558276","address2":"","postal_code":"33255","city":"Miami","state":"FL","country":"US","url":"http://sagmiami.com","latitude":25.7889689,"longitude":-80.2264393},{"name":"MythicVault.com","address1":"12611 ne 99th st.","address2":"w159","postal_code":"98682","city":"Vancouver ","state":"wa","country":"us","url":"http://mythicvault.com","latitude":45.693179,"longitude":-122.542738},{"name":"Mythic Realm LLC","address1":"1024 Brinsmade ","address2":"","postal_code":"10465","city":"Bronx","state":"NY","country":"US","url":"http://mythicrealmllc.com","latitude":40.829695,"longitude":-73.83076},{"name":"Good Fellas Games","address1":"1428 e semoran blvd","address2":"suite 108","postal_code":"32703","city":"Apopaka","state":"Fl","country":"Us","url":"http://goodfellasgames.com","latitude":28.6727174,"longitude":-81.4838996},{"name":"TCG Centers Inc.","address1":"7913 Crescent Park Drive","address2":"","postal_code":"20155","city":"Gainsville","state":"VA","country":"US","url":"http://tcgcenters.com","latitude":38.786484,"longitude":-77.663979},{"name":"Gaming Underground","address1":"2619 s main st.","address2":"suite 125","postal_code":"27263","city":"highpoint ","state":"NC","country":"us","url":"http://gamingundergroundllc.com","latitude":35.9277562,"longitude":-79.9857897},{"name":"Rock Game Shop","address1":"3600 SW 117th AVE ","address2":"","postal_code":"33183","city":"Miami","state":"FL","country":"US","url":"http://rockgameshop.com","latitude":25.7355608,"longitude":-80.3835135},{"name":"Mike and Beas ","address1":"6313 Lost Peak Ct.","address2":"","postal_code":"93311","city":"Bakersfield","state":"CA","country":"US","url":"http://mikeandbeas.com","latitude":35.2970029,"longitude":-119.123666},{"name":"Web-head enterprises","address1":"239 N Ave ","address2":"","postal_code":"01880","city":"Wakefield","state":"MA","country":"US","url":"http://webheadenterprises.crystalcommerce.com","latitude":42.517054,"longitude":-71.086457},{"name":"Pack Rat Comics","address1":"3864 Lattimer St.","address2":"","postal_code":"43026","city":"Hilliard","state":"OH","country":"US","url":"http://packratcomics.com","latitude":40.031063,"longitude":-83.159277},{"name":"VA Cards and Collectibles","address1":"2080 greyfox way","address2":"","postal_code":"23456","city":"Virginia Beach","state":"Va","country":"us","url":"http://vacardscollectibles.crystalcommerce.com","latitude":36.7680099,"longitude":-76.025312},{"name":"Prime Time Cards \u0026 Games","address1":"1232 East southern Ave #14","address2":"","postal_code":"85204","city":"Mesa","state":"AZ","country":"US","url":"http://primtimecardsandgames.com","latitude":33.3937424,"longitude":-111.8038921},{"name":"AHiddenFortress","address1":"2845 Cochran Street","address2":"STE C","postal_code":"93065","city":"Simi Valley","state":"CA","country":"US","url":"http://ahiddenfortress.com","latitude":34.2702221,"longitude":-118.7780987},{"name":"Bud's Place","address1":"8044 Parkway DR","address2":"","postal_code":"35094","city":"Leeds","state":"AL","country":"US","url":"http://budsplacegames.com","latitude":33.543987,"longitude":-86.542075},{"name":"Fables","address1":"1110 Red Bud RD NE","address2":"","postal_code":"30701","city":"Calhoun","state":"GA","country":"US","url":"http://fables.com","latitude":34.5118453,"longitude":-84.9227654},{"name":"Socalgaming","address1":"26162 Red Corral Rd.","address2":"","postal_code":"92653","city":"Laguna Hills","state":"CA","country":"US","url":"http://socalgaming.com","latitude":33.582482,"longitude":-117.690718},{"name":"Colosseum Games of Wisconsin","address1":"5719 75th st ","address2":"","postal_code":"53142","city":"kenosha","state":"wi","country":"us","url":"http://colosseumgamesofwi.com","latitude":42.5664049,"longitude":-87.8775468},{"name":"Nine Dragons Den","address1":"2020 Broadmoor Ave","address2":"","postal_code":"46818","city":"Fort Wayne","state":"IN","country":"US","url":"http://powerninegaming.crystalcommerce.com","latitude":41.160052,"longitude":-85.1708699},{"name":"Rochester CCG","address1":"539 sawyer st","address2":"","postal_code":"14619","city":"Rochester ","state":"NY","country":"US","url":"http://rochesterccg.com","latitude":43.134748,"longitude":-77.647595},{"name":"The Games Arena","address1":"750 main st","address2":"unit 3","postal_code":"04240","city":"Lewiston","state":"Me","country":"Us","url":"http://thegamesarena.crystalcommerce.com","latitude":44.1256994,"longitude":-70.2010831},{"name":"Toledo Game Room","address1":"3001 west sylvania ave.","address2":"","postal_code":"43613","city":"Toledo","state":"Oh","country":"US","url":"http://toledogameroom.com","latitude":41.691687,"longitude":-83.616159},{"name":"Goblin Games Kokomo","address1":"113 e sycamore ","address2":"","postal_code":"46901","city":"Kokomo","state":"In","country":"us","url":"http://goblingameskokomo.com","latitude":40.4864707,"longitude":-86.1304611},{"name":"Untouchables Sports cards and gaming","address1":"377 burnham porpe rd e","address2":"","postal_code":"L5A 3Y1","city":"Mississauga","state":"on","country":"Ca","url":"http://http//untouchables.ca/","latitude":0.0,"longitude":0.0},{"name":"Graveyardcards.com","address1":"3403 Likini St. ","address2":"","postal_code":"96818","city":"Honolulu ","state":"HI","country":"US","url":"http://graveyardcards.com","latitude":21.3457151,"longitude":-157.9168808},{"name":"First Turn Games","address1":"3621 1st ave se","address2":"","postal_code":"52403","city":"Cedar Rapids ","state":"IA","country":"us","url":"http://firstturngames.crystalcommerce.com","latitude":42.0150319,"longitude":-91.6350478},{"name":"manawerx east","address1":"4920 West Thunderbird RD","address2":"Suite 122 and 123","postal_code":"85306","city":"Glendale","state":"AZ","country":"US","url":"http://manawerxeast.com","latitude":33.6116901,"longitude":-112.1648254},{"name":"Mox Monkeys ","address1":"217 west kleberg","address2":"","postal_code":"78363","city":"Kingsville","state":"Tx","country":"us","url":"http://moxmonkeys.com","latitude":27.5165838,"longitude":-97.870013},{"name":"Undead Gaming Store","address1":"14895 Mystic Lake Cir. ","address2":"","postal_code":"7104-34119","city":"Naples","state":"Fl","country":"us","url":"http://undeadgamingstore.crystalcommerce.com","latitude":26.2594693,"longitude":-81.6907695},{"name":"TCG Inferno","address1":"5011 glen ridge ","address2":"unit 27","postal_code":"78229","city":"San Antonio","state":"tx","country":"US","url":"http://tcginferno.com","latitude":29.4926061,"longitude":-98.5870995},{"name":"JJ Card Store ","address1":"295 montauk hwy ","address2":"suite #12","postal_code":"11972","city":"Speonk","state":"NY","country":"us","url":"http://jjcardstore.com","latitude":40.8438779,"longitude":-72.762915},{"name":"Joven's Trading Post","address1":"285 Old Village Circle","address2":"Unit 5102","postal_code":"32084","city":"St. Augustine","state":"FL","country":"US","url":"http://jovenstradingpost.com","latitude":30.4014717,"longitude":-84.2373269},{"name":"Imaginarium Games","address1":"2017 43rd st. ","address2":"u-6","postal_code":"49508","city":"Grand Rapids","state":"Mi","country":"US","url":"http://imaginariumgames.net","latitude":42.8858122,"longitude":-85.6144263},{"name":"Comic Book Addiction","address1":"1022 Brock St S.","address2":"","postal_code":"L1N-4L8","city":"Whitby","state":"On","country":"Ca","url":"http://cbagames.com","latitude":43.8697343,"longitude":-78.9378378},{"name":"Gamer's Spot","address1":"350 Rue Heriot","address2":"","postal_code":"J2B 1B2","city":"Drummondville","state":"Qu","country":"Ca","url":"http://gamersspot.crystalcommerce.com","latitude":45.8829689,"longitude":-72.4848668},{"name":"game brooklyn","address1":"570 44th St ","address2":"Apt 1","postal_code":"11220","city":"Brooklyn","state":"NY","country":"US","url":"http://gamebrooklyn.com","latitude":40.647187,"longitude":-74.005263},{"name":"Get There Games","address1":"1759 victory blvd.","address2":"","postal_code":"10314","city":"Staten Island ","state":"ny","country":"US","url":"http://gettheregames.com","latitude":40.6130863,"longitude":-74.1224624},{"name":"Gamers Paradise","address1":"17540 Airline HWY","address2":"Suite G","postal_code":"70769","city":"Prairieville","state":"LA","country":"US","url":"http://gamersparadisela.crystalcommerce.com","latitude":30.3304925,"longitude":-90.9837531},{"name":"Arena Games","address1":"1350 3rd Ave","address2":"","postal_code":"85364","city":"Yuma","state":"AZ","country":"US","url":"http://thearenagames.crystalcommerce.com","latitude":32.7030645,"longitude":-114.6233028},{"name":"All The King's Men Chess and Games","address1":"62 South Broadway","address2":"","postal_code":"08071","city":"Pitman","state":"NJ","country":"US","url":"http://atkmgames.com","latitude":39.731699,"longitude":-75.1304059},{"name":"The Meta Game","address1":"3085 W. Bayridge Cir.","address2":"","postal_code":"99654","city":"Wasilla","state":"AK","country":"US","url":"http://akmetagame.com","latitude":61.5769411,"longitude":-149.4415085},{"name":"Stone-Leaf","address1":"411 main st.","address2":"","postal_code":"95971","city":"quincy ","state":"ca","country":"us","url":"http://stone-leaf.com","latitude":39.9354372,"longitude":-120.9313056},{"name":"Ottos Video Games and More","address1":"7701 White Lane ","address2":"","postal_code":"93309","city":"Bakersfield","state":"CA","country":"Un","url":"http://ottosvideogamesandmore.com","latitude":35.3181245,"longitude":-119.088709},{"name":"CardExchange","address1":"14020 Aurora Ave N","address2":"","postal_code":"98133","city":"Seattle","state":"WA","country":"US","url":"http://cardexchangegaming.crystalcommerce.com","latitude":47.7309971,"longitude":-122.3447563},{"name":"Alter Ego Collectibles","address1":"7119 Chanticleer Ave SE","address2":"","postal_code":"98065","city":"Snoqualmie","state":"WA","country":"US","url":"http://alteregocollectibles.com","latitude":47.5363323,"longitude":-121.8680452},{"name":"Ooples","address1":"7460 Callaghan RD","address2":"Suite 410","postal_code":"78229","city":"San Antonio","state":"TX","country":"US","url":"http://ooples.com","latitude":29.503818,"longitude":-98.559401},{"name":"Things and Games","address1":"817 ricon pl","address2":"","postal_code":"27703","city":"Duram","state":"No","country":"us","url":"http://thingsandgames.com","latitude":35.9657059,"longitude":-78.8042828},{"name":"Voltage Gaming Online","address1":"po box 8222","address2":"","postal_code":"06042","city":"Manchester","state":"Ct","country":"us","url":"http://voltagegamingonline.com","latitude":41.7985487,"longitude":-72.5323139},{"name":"Durdle Zone","address1":"1642 Kewalo St","address2":"#405","postal_code":"96822","city":"Honolulu ","state":"HI","country":"US","url":"http://durdlezone.crystalcommerce.com","latitude":21.306574,"longitude":-157.8371019},{"name":"Homefield sportscards and gaming","address1":"620 n new warrington rd","address2":"","postal_code":"32506","city":"Pensacola ","state":"fl","country":"us","url":"http://homefieldcards.com","latitude":30.419516,"longitude":-87.275283},{"name":"Game World","address1":"PO Box 422344","address2":"","postal_code":"34742","city":"Kissimmee","state":"FL","country":"US","url":"http://gameworldweb.com","latitude":28.3009571,"longitude":-81.4181247},{"name":"Stomping Grounds","address1":"181 Seneca St. ","address2":"Suite 3","postal_code":"14843","city":"Hornell","state":"NY","country":"US","url":"http://stompinggroundsstore.com","latitude":42.335819,"longitude":-77.65991},{"name":"Columbiasportscard","address1":"5900 ne 88th st","address2":"ste 205","postal_code":"98665","city":"Vancouver","state":"wa","country":"us","url":"http://columbiagame.crystalcommerce.com","latitude":45.6861814,"longitude":-122.6122287},{"name":"Icarus Magic","address1":"3079 Cobblers Crossing rd. ","address2":"","postal_code":"47150","city":"New Albany ","state":"In","country":"Us","url":"http://icarusmagic.com","latitude":38.366633,"longitude":-85.776311},{"name":"Carl's Game Station","address1":"203 Burns Ln.","address2":"","postal_code":"33884","city":"Winterhaven","state":"FL","country":"US","url":"http://carlsgamestation.crystalcommerce.com","latitude":0.0,"longitude":0.0},{"name":"Everything Games","address1":"316 w halfday rd","address2":"","postal_code":"60089","city":"Buffalo Grove","state":"IL","country":"us","url":"http://everythinggames.crystalcommerce.com","latitude":42.1960533,"longitude":-87.9645756},{"name":"wii play games","address1":"3310 S. Nellis BLVD","address2":"Suite 10","postal_code":"89121","city":"Las Vegas","state":"NV","country":"US","url":"http://wiiplaygames.com","latitude":36.128593,"longitude":-115.0643775},{"name":"Battlefield Games Texas","address1":"4200 E Stan Schlueter Loop","address2":"Ste. A. ","postal_code":"76542","city":"Killeen","state":"TX","country":"US","url":"http://battlefieldgamestexas.com","latitude":0.0,"longitude":0.0},{"name":"Circle City Games","address1":"3219 Abaca Ct.","address2":"","postal_code":"46203","city":"Indianapolis","state":"IN","country":"US","url":"http://circlecitygames.com","latitude":0.0,"longitude":0.0},{"name":"Macnarb","address1":"1505 OldField DR","address2":"","postal_code":"39553","city":"Gautier","state":"MI","country":"US","url":"http://macnarbgaming.crystalcommerce.com","latitude":0.0,"longitude":0.0},{"name":"Gamer's Den Shop","address1":"6410 Webber Rd","address2":"Ste 7","postal_code":"78413","city":"Corpus Christi","state":"TX","country":"US","url":"http://gamersdenshop.com","latitude":27.588074,"longitude":-97.786826},{"name":"Enck and Diamond Arcade and Card Shop","address1":"625 Cumberland St","address2":"","postal_code":"17042","city":"Lebanon","state":"PA","country":"US","url":"http://enck-diamond.com","latitude":0.0,"longitude":0.0},{"name":"The Battle Grounds Games","address1":"816 walnut square blvd. ","address2":"suite 51","postal_code":"30720","city":"Dalton","state":"Ga","country":"us","url":"http://thebattlegroundsgames.com","latitude":34.698109,"longitude":-85.004167},{"name":"Epic Puzzles and Games","address1":"3612 w 4700 s","address2":"suite 4","postal_code":"84129","city":"West Valley City","state":"Ut","country":"US","url":"http://epicpug.crystalcommerce.com","latitude":0.0,"longitude":0.0},{"name":"Fongo Bongo Games","address1":"1751 W 12600 S","address2":"","postal_code":"84065","city":"Riverton","state":"UT","country":"US","url":"http://fongobongo.crystalcommerce.com","latitude":0.0,"longitude":0.0},{"name":"The Haunted Game Cafe","address1":"3307 south college","address2":"","postal_code":"80525","city":"fort collins ","state":"co","country":"Us","url":"http://thehauntedgamecafe.crystalcommerce.com","latitude":0.0,"longitude":0.0},{"name":"The Bat Cave","address1":"8100 Cantrell Rd #1105","address2":"","postal_code":"72227","city":"Little Rock","state":"AR","country":"US","url":"http://batcavecardsandcomics.com","latitude":34.778271,"longitude":-92.3660088},{"name":"Don's Magic and Sundry","address1":"20500 alderleaf terrace","address2":"","postal_code":"20874","city":"Germantown","state":"Md","country":"us","url":"http://donsmagicandsundry.com","latitude":0.0,"longitude":0.0},{"name":"Card Addiction","address1":"1700 B College Way","address2":"","postal_code":"91754","city":"Monterey Park","state":"CA","country":"US","url":"http://cardaddiction.crystalcommerce.com","latitude":34.044387,"longitude":-118.152819},{"name":"Be There Games","address1":"2710 chamber dr","address2":"unit a","postal_code":"28110","city":"Monroe","state":"Nc","country":"us","url":"http://valuetowncards.crystalcommerce.com","latitude":35.0518354,"longitude":-80.6185141},{"name":"I Find Cards","address1":"5155 decarie blvd","address2":"","postal_code":"h3w3c2","city":"Montreal ","state":"Qu","country":"Ca","url":"http://ifindcards.com","latitude":45.4842366,"longitude":-73.629936},{"name":"GameFuzion LLC","address1":"953 W. Lebanon St.","address2":"","postal_code":"62263","city":"Nashville","state":"IL","country":"US","url":"http://gamefuzion.org","latitude":0.0,"longitude":0.0},{"name":"ARG Lakewood","address1":"15016 Columbine Ave","address2":"","postal_code":"44111","city":"Cleveland","state":"OH","country":"US","url":"http://arglakewood.com","latitude":41.46072,"longitude":-81.801534},{"name":"Game Corps","address1":"216 Bonney Brae ","address2":"","postal_code":"16511","city":"Erie","state":"PA","country":"US","url":"http://gamecorpsonline.com","latitude":0.0,"longitude":0.0},{"name":"Hot Ace Comics and Games","address1":"10839 E Apache Trail #131","address2":"","postal_code":"85120","city":"Mesa","state":"AZ","country":"Un","url":"http://hotacegaming.com","latitude":33.414038,"longitude":-111.596104},{"name":"Mizewell Games","address1":"2125 Hark Rider ST","address2":"Suite 36","postal_code":"72032","city":"Conway","state":"AR","country":"US","url":"http://mizewellgames.com","latitude":0.0,"longitude":0.0},{"name":"Command Zone Games","address1":"555 Poplar St","address2":"","postal_code":"31201","city":"Macon","state":"GA","country":"US","url":"http://commandzone.com","latitude":0.0,"longitude":0.0},{"name":"Next Dimension Games","address1":"2424 North 66th ST","address2":"","postal_code":"53213","city":"Wauwatosa","state":"WI","country":"US","url":"http://nextdimensiongames.com","latitude":0.0,"longitude":0.0},{"name":"TheEndGames","address1":"722 West Rio Rd.","address2":"","postal_code":"22901","city":"Charlottesville","state":"VA","country":"US","url":"http://theendgames.co","latitude":38.083366,"longitude":-78.4745949},{"name":"Epikos Comics Cards and Games","address1":"9408 apison pike","address2":"suite 9","postal_code":"37363","city":"Ooltewah","state":"Tn","country":"Us","url":"http://epikosccg.com","latitude":0.0,"longitude":0.0},{"name":"Fortress PC","address1":"2 East Main St","address2":"Suite 14","postal_code":"61832","city":"Danville","state":"IL","country":"US","url":"http://fortresspc.com","latitude":0.0,"longitude":0.0},{"name":"www.RivalsCCG.com","address1":"2501 E 28th St Ste 101","address2":"","postal_code":"90755","city":"Signal Hill","state":"CA","country":"US","url":"http://rivalsccg.crystalcommerce.com","latitude":0.0,"longitude":0.0},{"name":"TappedOutMagic.com","address1":"PO Box 2221","address2":"","postal_code":"30096","city":"Duluth","state":"GA","country":"US","url":"http://TappedOutMagic.com","latitude":34.0028786,"longitude":-84.1446376},{"name":"equilibriumgamestore","address1":"1203 AutoCenter Drive","address2":"","postal_code":"94509","city":"Antioch","state":"CA","country":"US","url":"http://equilibriumgamestore.com","latitude":38.0124116,"longitude":-121.829015},{"name":"Dogfish Store","address1":"1579 glacier dr.","address2":"","postal_code":"94521","city":"Concord","state":"Ca","country":"us","url":"http://dogfishstore.com","latitude":0.0,"longitude":0.0},{"name":"PFC Games","address1":"8438 Frederick PL","address2":"","postal_code":"98026","city":"Edmonds","state":"WA","country":"US","url":"http://pfcgames.crystalcommerce.com","latitude":0.0,"longitude":0.0},{"name":"ARG Akron","address1":"15016 Columbine Ave","address2":"","postal_code":"44111","city":"Cleveland","state":"oh","country":"us","url":"http://argakron.com","latitude":0.0,"longitude":0.0},{"name":"Dark Water Games","address1":"12 College Ln. ","address2":"","postal_code":"02536","city":"East Falmouth","state":"MA","country":"US","url":"http://darkwatergames.us","latitude":0.0,"longitude":0.0},{"name":"Shotwell Technologies CO Limited","address1":"35, Theklas Lysioti Street","address2":"Eagle Star House, 6th Floor","postal_code":"3030","city":"Limassol","state":"Re","country":"Gr","url":"http://blacklotus.gr/","latitude":0.0,"longitude":0.0},{"name":"Unfold Games","address1":"2121 east Lambert rd","address2":"suite 305","postal_code":"90631","city":"La-Habra","state":"Ca","country":"us","url":null,"latitude":0.0,"longitude":0.0},{"name":"Affinity for Cards","address1":"5443 old barn circle","address2":"","postal_code":"46268","city":"Indianapolis","state":"IN","country":"us","url":"http://affinityforcards.com","latitude":0.0,"longitude":0.0},{"name":"Mana Shack","address1":"22 broadlands ","address2":"","postal_code":"hd95qyk","city":"meltham","state":"Hu","country":"Un","url":"http://manashack.crystalcommerce.com","latitude":0.0,"longitude":0.0},{"name":"Flint Gaming","address1":"PO Box 320436","address2":"","postal_code":"48532","city":"Flint","state":"MI","country":"US","url":"http://flintgaming.com","latitude":43.0164056,"longitude":-83.7942551},{"name":"Brian's Comics and Games","address1":"135 west main","address2":"","postal_code":"48625","city":"Harrison","state":"MI","country":"us","url":"http://brianscomicsandgames.com","latitude":0.0,"longitude":0.0},{"name":"Imperial Games","address1":"4404 State Route 28","address2":"","postal_code":"13350","city":"Herkimer","state":"NY","country":"US","url":null,"latitude":0.0,"longitude":0.0},{"name":"Mindgamesltd","address1":"531 Colston Ln","address2":"","postal_code":"40601","city":"Frankfurt","state":"KY","country":"US","url":"http://mindgamesltd.com","latitude":38.2289802,"longitude":-84.7968469},{"name":"Baseball Cards and Memorabilia","address1":"5681 redwood dr.","address2":"Suite 12","postal_code":"94928","city":"Rohnert Park","state":"Ca","country":"US","url":"http://card-collecting.com","latitude":0.0,"longitude":0.0},{"name":"Yiz Games","address1":"740 prospect ave","address2":"","postal_code":"60010","city":"Barrington ","state":"il","country":"us","url":"http://yizgames.com","latitude":42.164855,"longitude":-88.138789},{"name":"Shadowwalkers","address1":"607 e main st.","address2":"","postal_code":"98604","city":"Battleground","state":"Wa","country":"us","url":"http://shadowwalkers.crystalcommerce.com","latitude":0.0,"longitude":0.0},{"name":"Ultimatemtg.com","address1":"2288 Castlegate Dr. N","address2":"","postal_code":"80108","city":"Castle Rock","state":"CO","country":"US","url":"http://ultimatemtg.crystalcommerce.com","latitude":0.0,"longitude":0.0},{"name":"DiscordiaGames.com","address1":"PO Box 385","address2":"","postal_code":"98337","city":"Bremerton","state":"WA","country":"US","url":"http://Discordiagamesstore.com","latitude":47.5646352,"longitude":-122.6346991},{"name":"Gamer Craze","address1":"47 main street","address2":"","postal_code":"13617","city":"campton ","state":"Ne","country":"Un","url":"http://gamer-craze.crystalcommerce.com","latitude":0.0,"longitude":0.0},{"name":"Gamer's Haven Greenville","address1":"1101 Charles BLVD","address2":"","postal_code":"27858","city":"Greenville","state":"NC","country":"US","url":"http://gamershavengreenville.com","latitude":0.0,"longitude":0.0},{"name":"BST Games","address1":"244 e bellevue rd.","address2":"","postal_code":"95301","city":"Atwater","state":"Ca","country":"us","url":"http://bstgames.com","latitude":0.0,"longitude":0.0},{"name":"CCG Hobbies Mexico (Drabelis Shop)","address1":"Calle 2 Viveros de Hoctum","address2":"#24 Col. Viveros de Valle","postal_code":"54060","city":"Mexico City","state":"Tl","country":"MX","url":"http://ccghobbiesmexico.com","latitude":0.0,"longitude":0.0},{"name":"Gamer Utopia","address1":"100 North Dixieland Rd.","address2":"Suite A6-7","postal_code":"72756","city":"Rogers","state":"AR","country":"US","url":"http://thegamerutopia.com","latitude":0.0,"longitude":0.0},{"name":"Atomicfun","address1":"114 N. 8th ST","address2":"","postal_code":"54220","city":"Manitowoc","state":"WI","country":"US","url":"http://atomicfun.net","latitude":0.0,"longitude":0.0},{"name":"Bad Wolf Trading","address1":"16911 Old Blue Luetta Rd","address2":"Suite 3","postal_code":"77070","city":"Houston","state":"TX","country":"US","url":"http://badwolftrading.com","latitude":30.0019251,"longitude":-95.5587967},{"name":"Cardfight Capital","address1":"1851 Misty Moon Way","address2":"","postal_code":"54115","city":"De Pere","state":"WI","country":"US","url":"http://cardfightcapital.com","latitude":0.0,"longitude":0.0},{"name":"Astral Games Online","address1":"207 e barnett","address2":"","postal_code":"97501","city":"Medford","state":"Or","country":"us","url":"http://astralgamesonline.com","latitude":0.0,"longitude":0.0},{"name":"Tap n' Atk Games","address1":"1104 carlisle rd","address2":"","postal_code":"17011","city":"Camp Hill","state":"Pa","country":"us","url":"http://tapnatkgames.com","latitude":0.0,"longitude":0.0},{"name":"Brute Force Games","address1":"4745 Wilson Ave","address2":"Apt #1","postal_code":"92116","city":"San Diego","state":"CA","country":"US","url":"http://bruteforcegames.net","latitude":32.7642837,"longitude":-117.1161338},{"name":"Dragons Keep","address1":"260 n university ave. ","address2":"","postal_code":"84601","city":"Provo","state":"Ut","country":"us","url":"http://dragonskeep.com","latitude":0.0,"longitude":0.0},{"name":"Oregon Trail Games","address1":"319 e 2nd st","address2":"","postal_code":"97058","city":"The Dalles","state":"Or","country":"us","url":"http://oregontrailgames.biz","latitude":45.601016,"longitude":-121.180712},{"name":"cyberlordgames","address1":"3136 400th county road ","address2":"","postal_code":"77612","city":"buna","state":"te","country":"Un","url":"http://cyberlordgames.com","latitude":0.0,"longitude":0.0},{"name":"Battleground CA","address1":"321 Inger ","address2":"Unit N317","postal_code":"93454","city":"Santa Maria","state":"CA","country":"US","url":"http://gobattleground.crystalcommerce.com","latitude":0.0,"longitude":0.0},{"name":"Magic Gaming Store","address1":"24 dunnock close","address2":"","postal_code":"po94hq","city":"Rowlands Castle","state":"Ha","country":"Uk","url":"http://magicgamingstore.co.uk","latitude":50.8784372,"longitude":-0.997335},{"name":"Game Master Goods","address1":"954 South Broadway","address2":"","postal_code":"11801","city":"Hicksville","state":"NY","country":"US","url":"http://gamemastergoods.com","latitude":0.0,"longitude":0.0},{"name":"Ottawa Gaming Cards","address1":"67 Preston St","address2":"","postal_code":"K1R-7N6","city":"Ottawa","state":"ON","country":"Ca","url":"http://ottawagamerz.ca","latitude":45.4097904,"longitude":-75.7150564},{"name":"The Hobby Shop of Wilson","address1":"2101 Tarboro St SW","address2":"Unit B7","postal_code":"27893","city":"Wilson","state":"NC","country":"US","url":"http://http//www.thehobbyshopofwilson.com/","latitude":0.0,"longitude":0.0},{"name":"armor ogre games","address1":"9080 buchanan trail","address2":"","postal_code":"55076","city":"intergrove heights","state":"MN","country":"Un","url":"http://armoredogre.com","latitude":0.0,"longitude":0.0},{"name":"Campus Cards and Games","address1":"1226 Corporate BLVD","address2":"Suite 130","postal_code":"32817","city":"Orlando","state":"FL","country":"US","url":"http://campuscardsandgames.com","latitude":28.6052666,"longitude":-81.2157277},{"name":"The Game Cave","address1":"228 Sanders Ferry RD","address2":"APT C48","postal_code":"37075","city":"Hendersonville","state":"TN","country":"US","url":"http://thegamecave.net","latitude":0.0,"longitude":0.0},{"name":"mycomicsplus","address1":"6443 zebulon rd suite 1e","address2":"","postal_code":"31052","city":"Macon","state":"Ge","country":"Un","url":"http://mycomicsplus.net","latitude":0.0,"longitude":0.0},{"name":"Learn 2 Play Games","address1":"3339 Handy Rd.","address2":"Apt 618","postal_code":"33618","city":"Tampa ","state":"FL","country":"US","url":"http://l2ptampa.com","latitude":0.0,"longitude":0.0},{"name":"terracruxgames","address1":"7240 East G street","address2":"","postal_code":"98404","city":"Tacoma","state":"wa","country":"Un","url":"http://terracruxgames.com","latitude":47.190427,"longitude":-122.4226},{"name":"Ice Imports","address1":"61 evergreen way","address2":"","postal_code":"06074","city":"South Windsor","state":"Ct","country":"Us","url":"http://iceimports.crystalcommerce.com","latitude":0.0,"longitude":0.0},{"name":"AlternateUniverseGames.com","address1":"596 SW 207th Ave","address2":"","postal_code":"97006","city":"Aloha","state":"OR","country":"US","url":"http://alternateuniversegames.crystalcommerce.com","latitude":45.515358,"longitude":-122.89036},{"name":"Gamers Gauntlet","address1":"20564 hall road","address2":"","postal_code":"48038","city":"Clinton township","state":"MI","country":"Un","url":"http://gamersgauntlet.net","latitude":0.0,"longitude":0.0},{"name":"Crazy Squirrel Gamestore","address1":"464 e bullard ave","address2":"suite 105","postal_code":"93710","city":"Fresno","state":"Ca","country":"us","url":"http://crazysquirrel.com","latitude":0.0,"longitude":0.0},{"name":"Card Rush","address1":"12096 Brookhurst St","address2":"","postal_code":"92840","city":"Garden Grove","state":"CA","country":"US","url":"http://cardrush.com","latitude":33.7878981,"longitude":-117.9585935},{"name":"Event Horizon Games","address1":"1496 garner station blvd","address2":"","postal_code":"27603","city":"Raleigh","state":"NC","country":"us","url":"http://eventhorizongames.crystalcommerce.com","latitude":0.0,"longitude":0.0},{"name":"Alternate Universes","address1":"111","address2":"","postal_code":"19102","city":"Philadelphia","state":"PA","country":"US","url":"http://alternateu.crystalcommerce.com","latitude":0.0,"longitude":0.0},{"name":"TheMonkeyBox","address1":"unit # 38 6498 south downe pl","address2":"","postal_code":"v2rok3","city":"Chilliwack","state":"Vi","country":"Ca","url":"http://themonkeybox.crystalcommerce.com","latitude":0.0,"longitude":0.0},{"name":"Jax Game Center","address1":"111","address2":"","postal_code":"11111","city":"Jacksonville","state":"fl","country":"US","url":"http://jaxgamecenter.crystalcommerce.com","latitude":0.0,"longitude":0.0},{"name":"Max Protection LLC","address1":"5862 s. 194th st. ","address2":"","postal_code":"98032","city":"Kent","state":"Wa","country":"Us","url":"http://comic-defender.com","latitude":0.0,"longitude":0.0},{"name":"Game Qore","address1":"107 E Main","address2":"","postal_code":"93291","city":"Visalia","state":"CA","country":"US","url":"http://gameqore.com","latitude":0.0,"longitude":0.0},{"name":"Game Star Inc","address1":"118 West 1st Street","address2":"","postal_code":"97132","city":"Newberg","state":"OR","country":"US","url":"http://gamestarinc.net","latitude":45.3003091,"longitude":-122.9793317},{"name":"Dreamwizards","address1":"11772 parklawn drive","address2":"","postal_code":"20852","city":"rockville","state":"ma","country":"Un","url":"http://dreamwizards.com","latitude":0.0,"longitude":0.0},{"name":"Hero Support","address1":"823 e st","address2":"","postal_code":"98671","city":"Washougal","state":"Wa","country":"us","url":"http://herosupport.crystalcommerce.com","latitude":0.0,"longitude":0.0},{"name":"feistygoblingames","address1":"66 7th street extention","address2":"","postal_code":"15068","city":"Newkensingcon","state":"PA","country":"Un","url":"http://feistygoblingames.com","latitude":0.0,"longitude":0.0},{"name":"Adventurer's Quarter","address1":"1641 s zuni st","address2":"","postal_code":"80223","city":"Denver ","state":"Co","country":"us","url":"http://adventurersquarter.com","latitude":0.0,"longitude":0.0},{"name":"Mythic Realm Games","address1":"14313 ne 20th ave","address2":"suite 109a","postal_code":"98686","city":"Vancouver ","state":"Wa","country":"Un","url":"http://mythicrealmgames.crystalcommerce.com","latitude":0.0,"longitude":0.0},{"name":"wizardsquestgaming","address1":"2289 patterson rd","address2":"","postal_code":"45420","city":"kettering","state":"OH","country":"Un","url":"http://wizardsquestgaming","latitude":39.723264,"longitude":-84.130242},{"name":"Auggies Games","address1":"248 Prince Anthony Dr. ","address2":"","postal_code":"30044","city":"Lawrenceville ","state":"GA","country":"US","url":"http://auggiesgamestore.com","latitude":0.0,"longitude":0.0},{"name":"AZ Brain Games","address1":"610 5Th AVE ","address2":"","postal_code":"85546","city":"Safford","state":"AZ","country":"US","url":"http://azbraingames.crystalcommerce.com","latitude":0.0,"longitude":0.0},{"name":"QC Gaming","address1":"541 hwy 78 w","address2":"","postal_code":"35501","city":"Jasper","state":"Al","country":"us","url":"http://qcgaming.com","latitude":0.0,"longitude":0.0},{"name":"Tower of Games","address1":"1400 kempsville rd","address2":"suite 133","postal_code":"23320","city":"Chesepeke","state":"va","country":"us","url":"http://towerofgames.crystalcommerce.com","latitude":0.0,"longitude":0.0},{"name":"Tacoma Games","address1":"3001 6th Ave","address2":"","postal_code":"98407","city":"Tacoma","state":"WA","country":"Un","url":"http://www.LikeTacomaGames.com","latitude":47.2555128,"longitude":-122.4750684},{"name":"A Mythic Trader","address1":"Malfattigassa 18","address2":"APT 28-29","postal_code":"1120","city":"Vienna","state":"Vi","country":"Au","url":"http://amythictrader.crystalcommerce.com","latitude":0.0,"longitude":0.0},{"name":"316 Collectibles","address1":"1012 Newpark Mall","address2":"","postal_code":"94560","city":"Newark","state":"CA","country":"US","url":"http://www.316collectibles.com","latitude":0.0,"longitude":0.0},{"name":"The Wasteland Gaming","address1":"4805 Lawrenceville Highway","address2":"Suite 200","postal_code":"30047","city":" Lilburn","state":"GA","country":"Us","url":"http://thewastelandgaming.com","latitude":33.8946864,"longitude":-84.1405478},{"name":"Tapped out gaming","address1":"28410 ave stanford","address2":"","postal_code":"91355","city":"Vilencia","state":"CA","country":"Un","url":"http://tappedoutgamingscv.com","latitude":0.0,"longitude":0.0},{"name":"GalaxyGamesdeland","address1":"207 northwoodland blvd ","address2":"","postal_code":"32720","city":"deland","state":"FL","country":"Un","url":"http://galaxygames-online.crystalcommerce.com","latitude":0.0,"longitude":0.0},{"name":"Andrew Bishop","address1":"1170 josephine rd","address2":"","postal_code":"55113","city":"Roseville","state":"Mn","country":"Us","url":"http://goldtcg.com","latitude":45.030259,"longitude":-93.150387},{"name":"The Mana Vault","address1":"16 north brook street","address2":"","postal_code":"54935","city":"Fondulette ","state":"WI","country":"Un","url":"http://tmvgames.com","latitude":0.0,"longitude":0.0},{"name":"Arbiter Games LLC","address1":"63 penny dr.","address2":"","postal_code":"11933","city":"Calverton","state":"Ne","country":"us","url":"http://brothersgrimccg.com","latitude":40.931847,"longitude":-72.782043},{"name":"Mini Duels","address1":"4270 aloma avenue suit 148","address2":"","postal_code":"32792","city":"winnipog","state":"FL","country":"Un","url":"http://miniduels.com","latitude":0.0,"longitude":0.0},{"name":"Warlord's Den","address1":"402 N 5th St","address2":"","postal_code":"17046","city":"Lebanon","state":"PA","country":"US","url":"http://warlordsden.com","latitude":0.0,"longitude":0.0},{"name":"The Green Dragon Online","address1":"7671 north woods blvd","address2":"suite 5T","postal_code":"29406","city":"North Charleston","state":"SC","country":"us","url":"http://thegreendragononline.com","latitude":0.0,"longitude":0.0},{"name":"hogwart'zrejects","address1":"117 downside drive ","address2":"","postal_code":"28512","city":"Atlantic Beach","state":"NC","country":"Un","url":"http://hogwartzrejects.com","latitude":0.0,"longitude":0.0},{"name":"The War Store Com","address1":"47420 main rd. southhold","address2":"","postal_code":"11971","city":"New York","state":"Ny","country":"us","url":"http://thewarstoreny.com","latitude":0.0,"longitude":0.0},{"name":"Cape Cod Collectibles","address1":"3090 cranberry hwy","address2":"","postal_code":"02538","city":"East Wareham","state":"Ma","country":"us","url":"http://capecodcollectibles.net","latitude":0.0,"longitude":0.0},{"name":"Silver Creek Game Shop","address1":"947 s indiana ave","address2":"","postal_code":"47172","city":"Sellersburg","state":"In","country":"Us","url":"http://silvercreekgameshop@gmail.com","latitude":0.0,"longitude":0.0},{"name":"NextLinkGaming","address1":"1444 ditty ave","address2":"","postal_code":"95403","city":"santa rosa","state":"CA","country":"Un","url":"http://NextLinkGaming.com","latitude":38.4671771,"longitude":-122.735984},{"name":"Maelstrom Store","address1":"10887 Ilderton rd","address2":"","postal_code":"M0M2A0","city":"Ilderton ","state":"On","country":"Ca","url":"http://maelstromstore.crystalcommerce.com","latitude":0.0,"longitude":0.0},{"name":"ziacomics","address1":"1300 El Paseo Suite E1","address2":"","postal_code":"88001","city":"Las Cruces","state":"NM","country":"Un","url":"http://ziacomix.com","latitude":0.0,"longitude":0.0},{"name":"Card Monster Games","address1":"7600 kingston pike","address2":"","postal_code":"37919","city":"Knoxville","state":"TN","country":"US","url":"http://cardmonstergames.com","latitude":0.0,"longitude":0.0},{"name":"ISD Gaming","address1":"Bo, Maleza Alta Gate 5 Plaza","address2":"km 9.8","postal_code":"00603","city":"Aguadilla","state":"PR","country":"US","url":"http://isdgaming.com","latitude":0.0,"longitude":0.0},{"name":"Most Good Hobby \u0026 Fun Emporium","address1":"501 Astoria Ct","address2":"","postal_code":"60061","city":"Vernon Hills","state":"IL","country":"US","url":"http://mostgoodhobby.com","latitude":42.234817,"longitude":-87.963072},{"name":"Mishra's Workshop","address1":"14362 Pernell DR","address2":"","postal_code":"48313","city":"Sterling Heights","state":"MI","country":"US","url":"http://mishrasworkshop.com","latitude":42.589601,"longitude":-82.98188},{"name":"A2Z Games LLC","address1":"4257 w Iba Rd","address2":"","postal_code":"85741","city":"Tucson","state":"AZ","country":"us","url":"http://www.thea2zgames.com","latitude":0.0,"longitude":0.0},{"name":"t\u0026j'scardandhobbyshop","address1":"225 south madison blvd suite z","address2":"","postal_code":"27573","city":"rocxburo","state":"NC","country":"Un","url":"http://tjcardandhobbyshop.net","latitude":0.0,"longitude":0.0},{"name":"Madhatter Games","address1":"320 main street","address2":"","postal_code":"81212","city":"cannyon ","state":"CO","country":"Un","url":"http://madhattergames.crystalcommerce.com","latitude":0.0,"longitude":0.0},{"name":"Pair of Dice Games","address1":"117 Gahan Drive","address2":"","postal_code":"39503","city":"Gulfport","state":"MS","country":"US","url":"http://pairofdicegames.crystalcommerce.com","latitude":0.0,"longitude":0.0},{"name":"Chicagoland Games","address1":"5550 n broadway","address2":"","postal_code":"60640","city":"Chicago","state":"il","country":"us","url":"http://chicagolandgames.com","latitude":41.9831987,"longitude":-87.660099},{"name":"Arrowstar Games","address1":"526 spring meadow","address2":"","postal_code":"76401","city":"Stephensville ","state":"Tx","country":"us","url":"http://arrowstargames.com","latitude":0.0,"longitude":0.0},{"name":"Xace Games","address1":"4753 Normal Ave","address2":"","postal_code":"46226","city":"Indianapolis","state":"IN","country":"US","url":"http://xacegames.com","latitude":39.843288,"longitude":-86.029229},{"name":"MTG Collector","address1":"385 Rhode Island st","address2":"","postal_code":"14213","city":"Buffalo","state":"NY","country":"us","url":"http://mtgcollector.com","latitude":0.0,"longitude":0.0},{"name":"Gamers Emporium LLC","address1":"10520 Reagan Run Dr","address2":"","postal_code":"34711","city":"Clairemont","state":"FL","country":"US","url":"http://gamersemporium.crystalcommerce.com","latitude":0.0,"longitude":0.0},{"name":"livernmorecards","address1":"po box 708 ","address2":"","postal_code":"42352","city":"livingworth","state":"KY","country":"Un","url":"http://southerncards.com","latitude":37.4931142,"longitude":-87.1319587},{"name":"The Dark Side","address1":"501 N. Beneva Rd ","address2":"Suite #260","postal_code":"34232 ","city":"Sarasota","state":"FL","country":"US","url":"http://darksidecomics.net","latitude":0.0,"longitude":0.0},{"name":"jemtg","address1":"3090 S. Dorchester Rd.","address2":"","postal_code":"43221","city":"Columbus","state":"OH","country":"US","url":"http://jemtg.com","latitude":40.0174639,"longitude":-83.081226},{"name":"Kapow Comics","address1":"2631 freedom parkway","address2":"","postal_code":"30041","city":"Cumming","state":"Ga","country":"Us","url":"http://kapowcomicsandgames.crystalcommerce.com","latitude":0.0,"longitude":0.0},{"name":"X-treme Comics and Games","address1":"1401 green brier park way suit 2","address2":"","postal_code":"32563","city":"Golf breeze ","state":"FL","country":"Un","url":"http://xtremecng.com","latitude":0.0,"longitude":0.0},{"name":"scifi-factory","address1":"10716 north beach street","address2":"","postal_code":"76244","city":"Forth Worth","state":"TX","country":"Un","url":"http://scifi-factory.com","latitude":32.92928,"longitude":-97.288685},{"name":"Cards Games Comics","address1":"1431 Lincoln blvd","address2":"","postal_code":"94001","city":"Santa Monica ","state":"Ca","country":"US","url":"http://cardsgamescomics.com","latitude":0.0,"longitude":0.0},{"name":"Game Nite","address1":"8330 watson rd","address2":"","postal_code":"63119","city":"st louis ","state":"MS","country":"Un","url":"http://gameniteshop.com","latitude":0.0,"longitude":0.0},{"name":"The Golden Sleeve","address1":"60 rudding pon reddington drive ","address2":"","postal_code":"m2k2j9","city":"toronto","state":"ON","country":"Ca","url":"http://thegoldensleeve.com","latitude":43.7916475,"longitude":-79.3903735},{"name":"bnc hobbies","address1":"729 alderon ave","address2":"","postal_code":"45205","city":"cinci","state":"OH","country":"Un","url":"http://bnchobbies.com","latitude":0.0,"longitude":0.0},{"name":"Game On Cafe","address1":"49 water street ","address2":"","postal_code":"04330","city":"augusta","state":"Ma","country":"Un","url":"http://gameoncafe.org","latitude":0.0,"longitude":0.0},{"name":"Asgard Keep","address1":"1001 Olin Lane","address2":"","postal_code":"62864","city":"Mount Veronon","state":"IL","country":"US","url":"http://asgardkeep.com","latitude":0.0,"longitude":0.0},{"name":"Realms fantasy Games","address1":"908 bacons bridge rd unit 1","address2":"","postal_code":"29485","city":"Summerville","state":"SC","country":"Un","url":"http://realmsfantasygames.com","latitude":32.9969361,"longitude":-80.1867183},{"name":"Clockwork Gamer","address1":"12829 campolina way","address2":"","postal_code":"76244","city":"Fort Worth","state":"Tx","country":"Us","url":"http://clockworkgamer.com","latitude":32.96233,"longitude":-97.29179},{"name":"Kessel run games","address1":"5angele ","address2":"","postal_code":"k0a1w0","city":"emberund","state":"ON","country":"Ca","url":"http://kesselrungames.crystalcommerce.com","latitude":0.0,"longitude":0.0},{"name":"fabricatedrealitygames","address1":"106 west herrick ave","address2":"","postal_code":"44090","city":"wellington","state":"Oh","country":"Un","url":"http://fabricatereality.com","latitude":0.0,"longitude":0.0},{"name":"Phantasm Gaming","address1":"22 ledyard place","address2":"","postal_code":"06512","city":"East Haven","state":"CN","country":"Un","url":"http://phantasmgaming.com","latitude":0.0,"longitude":0.0},{"name":"Discount TCG","address1":"1001 Ocala rd","address2":"255","postal_code":"32303","city":"Tallahasse ","state":"Fl","country":"US","url":"http://discounttcg.com","latitude":0.0,"longitude":0.0},{"name":"Tome2","address1":"42 saint-jacques street","address2":"","postal_code":"j3b2j7","city":"saint-jea-sur-richelieu","state":"Qu","country":"Ca","url":"http://tome-2.com","latitude":45.3060574,"longitude":-73.2517603},{"name":"Rising Sun Card Shop","address1":"268 Main St #261","address2":"","postal_code":"08164","city":"North Redding","state":"MA","country":"US","url":"http://risingsunshops.com","latitude":0.0,"longitude":0.0},{"name":"Highlander Gaming","address1":"1301 e carroll st","address2":"","postal_code":"37388 ","city":"Tullahoma","state":"Tn","country":"us","url":"http://highlandergaming.com","latitude":35.369904,"longitude":-86.186269},{"name":"Edict Games","address1":"913 n broadway","address2":"","postal_code":"66762","city":"Pittsburg","state":"Ks","country":"us","url":"http://thegameshoppe.com","latitude":0.0,"longitude":0.0},{"name":"Beach Magic Games","address1":"4896 main st suit 106","address2":"","postal_code":"37347","city":"Jasper ","state":"TN","country":"Un","url":"http://beachmagicgames.org","latitude":35.072405,"longitude":-85.617557},{"name":"Competitive Card Shack","address1":"719 S Chapel Ave","address2":"#C","postal_code":"91801","city":"Alhambra","state":"CA","country":"US","url":"http://competitivecardshack.com","latitude":34.0884132,"longitude":-118.1200175},{"name":"Geeks and Nerds Quarters","address1":"215 s maple","address2":"","postal_code":"65026","city":"Eldon","state":"MO","country":"us","url":"http://ganqgaming.com","latitude":0.0,"longitude":0.0},{"name":"The Sage's Shoppe","address1":"1009 Sagemore Parkway West","address2":"","postal_code":"47906","city":"West Lafayette","state":"IN","country":"Un","url":"http://thesagesshoppe.com","latitude":40.4532567,"longitude":-86.9202507},{"name":"JAB Games","address1":"142 E Bacon","address2":"","postal_code":"02762","city":"Plainville","state":"MA","country":"US","url":"http://jabgames.crystalcommerce.com","latitude":0.0,"longitude":0.0},{"name":"Sad Robot MTG","address1":"135 w annandale rd","address2":"","postal_code":"22046","city":"Fall Church","state":"Va","country":"us","url":"http://sadrobotmtg.crystalcommerce.com","latitude":0.0,"longitude":0.0},{"name":"Aviator-Games","address1":"13415 SW 73rd Terrace","address2":"","postal_code":"33183","city":"Miami","state":"FL","country":"US","url":"http://aviator-games.crystalcommerce.com","latitude":0.0,"longitude":0.0},{"name":"Gamerz Pair-a-dice","address1":"7460 Callaghan RD","address2":"suite 410","postal_code":"78229","city":"San Antonio","state":"Tx","country":"us","url":"http://gamerzpairadice.com","latitude":29.503818,"longitude":-98.559401},{"name":"That Book Place","address1":"337 clifty dr","address2":"","postal_code":"47250","city":"Madison","state":"In","country":"us","url":"http://thatbookplace.com","latitude":38.774469,"longitude":-85.39375},{"name":"Quick Sales Gaming","address1":"466 nw wren ave","address2":"","postal_code":"83647","city":"boise","state":"Id","country":"us","url":"http://quicksalesgaming.com","latitude":0.0,"longitude":0.0},{"name":"CCG Supply","address1":"115 locust st","address2":"apt c","postal_code":"47111","city":"charlestown","state":"in","country":"us","url":"http://ccgsupply.crystalcommerce.com","latitude":38.4630191,"longitude":-85.6689041},{"name":"Satcom and computers","address1":"690 san antnio ave ","address2":"","postal_code":"71449","city":"Manning","state":"LA","country":"Un","url":"http://dragonmtg.com","latitude":31.5683335,"longitude":-93.4842425},{"name":"I Win Games","address1":"3270 aloha ave","address2":"","postal_code":"96822","city":"Honolulu ","state":"HI","country":"Un","url":"http://iwingames-online.com","latitude":21.2810706,"longitude":-157.8262678},{"name":"Mind Seek Games","address1":"2234 west beverly st.","address2":"","postal_code":"24401","city":"Staunton","state":"Va","country":"us","url":"http://mindseekgames.crystalcommerce.com","latitude":0.0,"longitude":0.0},{"name":"J\u0026R Cards and Comics","address1":"42 Cushing Street","address2":"","postal_code":"04011","city":"Brunswick","state":"Ma","country":"US","url":"http://jandrcards.com","latitude":43.9147345,"longitude":-69.9719171},{"name":"Magic World Market","address1":"18b e st louis st","address2":"","postal_code":"62254","city":"Lebanon","state":"il","country":"us","url":"http://magicworldmarket.com","latitude":38.6038935,"longitude":-89.807588},{"name":"Bigncollectible","address1":"1101 hammond ave ","address2":"","postal_code":"60506","city":"Aurora","state":"IL","country":"Un","url":"http://bigncollectibles.com","latitude":41.780005,"longitude":-88.324205},{"name":"Showtime Cards","address1":"5801 east speedway blvd","address2":"","postal_code":"85712","city":"Tuscon","state":"Az","country":"us","url":"http://showtimecards.com","latitude":32.2362531,"longitude":-110.8688331},{"name":"Dirigo Hobbies","address1":"16 main street ","address2":"","postal_code":"04039","city":"Gray","state":"Ma","country":"Un","url":"http://dirigohobbies.com","latitude":0.0,"longitude":0.0},{"name":"Win Condition","address1":"4044 George Busbee Pkwy Suite 83","address2":"","postal_code":"30144","city":"Kennesaw","state":"GA","country":"Un","url":"http://winconditioncards.com","latitude":34.0504975,"longitude":-84.5846654},{"name":"Red Battle Games","address1":"1206 W Main St","address2":"","postal_code":"24540","city":"Danville","state":"VA","country":"US","url":"http://redbattlegames.com","latitude":36.6002818,"longitude":-79.3804361},{"name":"Grey Castle Games","address1":"1907 hwy 5 n","address2":"703","postal_code":"72019","city":"Benton ","state":"Ar","country":"us","url":"http://greycastlegames.com","latitude":34.614161,"longitude":-92.536293},{"name":"The State of Gaming","address1":"264 Rock Springs Church Rd","address2":"","postal_code":"27312","city":"Pittsboro","state":"NC","country":"US","url":"http://thestateofgamin.com","latitude":0.0,"longitude":0.0},{"name":"Gizmo's Games","address1":"1","address2":"","postal_code":"79701","city":"Midland","state":"TX","country":"US","url":null,"latitude":0.0,"longitude":0.0},{"name":"Do Not Contact - IBSInsurance","address1":"255 Grand Blvd.","address2":"PO Box 958","postal_code":"11590","city":"New York","state":"NY","country":"US","url":"http://ibsinsurance.crystalcommerce.com","latitude":0.0,"longitude":0.0},{"name":"Game Keeper 2","address1":"7815 Chateau Briand","address2":"","postal_code":"h2r-2m5","city":"Montreal","state":"Qu","country":"Ca","url":"http://gamekeeper.fr","latitude":45.5446286,"longitude":-73.6235076},{"name":"MTG Source","address1":"2615 West Gary Ave #1004","address2":"","postal_code":"89123","city":"Las Vegas","state":"NV","country":"US","url":"http://tcgjunkie.com","latitude":36.013844,"longitude":-115.1763},{"name":"Mana To Burn","address1":"435 North Bardstown Road","address2":"Suite 2","postal_code":"40047","city":"Mount Washington","state":"Ke","country":"US","url":"http://manatoburn.com","latitude":38.0507459,"longitude":-85.546838},{"name":"A and B Cards and Comics","address1":"7795 Antelope Rd #26","address2":"","postal_code":"95610","city":"Citrus Heights","state":"CA","country":"US","url":"http://aandbcards.com","latitude":38.706561,"longitude":-121.275925},{"name":"RealmWalkerGaming","address1":"56165 stewart street","address2":"","postal_code":"68104","city":"Omaha","state":"NB","country":"Un","url":"http://realmwalkergaming.com","latitude":32.1729224,"longitude":-84.9660787},{"name":"Card Advantage","address1":"5017 Crews Crt","address2":"","postal_code":"82001","city":"Cheyenne","state":"WY","country":"US","url":"http://cardadvantagemtg.com","latitude":41.153632,"longitude":-104.748327},{"name":"Sky net games","address1":"1114 south fifth street","address2":"","postal_code":"60174","city":"saint charles ","state":"IL","country":"Un","url":"http://skynetgames.com","latitude":41.902717,"longitude":-88.3168309},{"name":"Black Hole Gaming","address1":"130 baliant street building 222 ","address2":"","postal_code":"76908","city":"San Antonio","state":"tx","country":"Un","url":"http://blackholegaming.net","latitude":29.8819472,"longitude":-98.2087963},{"name":"Deriums CCG's","address1":"1928 portage trail","address2":"","postal_code":"44223","city":"Cuiahoga","state":"Oh","country":"us","url":"http://deriums.com","latitude":41.1477325,"longitude":-81.5058143},{"name":"Deriums CCG's","address1":"1928 portage trail","address2":"","postal_code":"44223","city":"Cuiahoga","state":"Oh","country":"us","url":"http://deriums.com","latitude":41.1477325,"longitude":-81.5058143},{"name":"Cards Now 24 7","address1":"1834 Sahara Ct.","address2":"","postal_code":"54304","city":"Green Bay","state":"WI","country":"US","url":"http://cardsnow247.com","latitude":44.50873,"longitude":-88.075376},{"name":"Nerdvana NV","address1":"411 main st.","address2":"","postal_code":"95971","city":"quincy ","state":"ca","country":"us","url":"http://nerdvananv.com","latitude":39.9354372,"longitude":-120.9313056},{"name":"Goodwill INK","address1":"242 s illinois ave","address2":"","postal_code":"37830","city":"oakridge ","state":"tn","country":"us","url":"http://goodwillink.com","latitude":36.0070404,"longitude":-84.2589213}]}